$GPGGA,033456.78,3443.863540,N,13924.955020,E,1,08,0.9,465.00,M,28.4,M,,,*7A
$GPZDA,033456.78,01,10,2013,00,00*6E
$GPGGA,033456.78,3443.863540,N,13924.955020,E,1,08,0.9,465.00,M,28.4,M,,,*7A
$GPZDA,033456.78,01,10,2013,00,00*6E
$GPGGA,033456.79,3443.863540,N,13924.955020,E,1,08,0.9,465.00,M,28.4,M,,,*7B
$GPZDA,033456.79,01,10,2013,00,00*6F
$GPGGA,033456.81,3443.863541,N,13924.955021,E,1,08,0.9,465.01,M,28.4,M,,,*7D
$GPZDA,033456.81,01,10,2013,00,00*68
$GPGGA,033456.84,3443.863545,N,13924.955025,E,1,08,0.9,465.05,M,28.4,M,,,*7C
$GPZDA,033456.84,01,10,2013,00,00*6D
$GPGGA,033456.89,3443.863554,N,13924.955037,E,1,08,0.9,465.15,M,28.4,M,,,*73
$GPZDA,033456.89,01,10,2013,00,00*60
$GPGGA,033456.95,3443.863576,N,13924.955064,E,1,08,0.9,465.40,M,28.4,M,,,*78
$GPZDA,033456.95,01,10,2013,00,00*6D
$GPGGA,033457.04,3443.863626,N,13924.955124,E,1,08,0.9,465.94,M,28.4,M,,,*7B
$GPZDA,033457.04,01,10,2013,00,00*64
$GPGGA,033457.17,3443.863728,N,13924.955248,E,1,08,0.9,467.05,M,28.4,M,,,*75
$GPZDA,033457.17,01,10,2013,00,00*66
$GPGGA,033457.31,3443.863886,N,13924.955438,E,1,08,0.9,468.77,M,28.4,M,,,*71
$GPZDA,033457.31,01,10,2013,00,00*62
$GPGGA,033457.44,3443.864084,N,13924.955678,E,1,08,0.9,470.94,M,28.4,M,,,*7C
$GPZDA,033457.44,01,10,2013,00,00*60
$GPGGA,033457.56,3443.864308,N,13924.955949,E,1,08,0.9,473.38,M,28.4,M,,,*70
$GPZDA,033457.56,01,10,2013,00,00*63
$GPGGA,033457.68,3443.864559,N,13924.956252,E,1,08,0.9,476.13,M,28.4,M,,,*71
$GPZDA,033457.68,01,10,2013,00,00*6E
$GPGGA,033457.80,3443.864842,N,13924.956594,E,1,08,0.9,479.22,M,28.4,M,,,*70
$GPZDA,033457.80,01,10,2013,00,00*68
$GPGGA,033457.92,3443.865167,N,13924.956986,E,1,08,0.9,482.76,M,28.4,M,,,*76
$GPZDA,033457.92,01,10,2013,00,00*6B
$GPGGA,033458.05,3443.865553,N,13924.957453,E,1,08,0.9,486.95,M,28.4,M,,,*79
$GPZDA,033458.05,01,10,2013,00,00*6A
$GPGGA,033458.18,3443.866017,N,13924.958014,E,1,08,0.9,491.94,M,28.4,M,,,*7C
$GPZDA,033458.18,01,10,2013,00,00*66
$GPGGA,033458.33,3443.866558,N,13924.958668,E,1,08,0.9,497.69,M,28.4,M,,,*72
$GPZDA,033458.33,01,10,2013,00,00*6F
$GPGGA,033458.45,3443.867066,N,13924.959281,E,1,08,0.9,503.01,M,28.4,M,,,*7A
$GPZDA,033458.45,01,10,2013,00,00*6E
$GPGGA,033458.55,3443.867548,N,13924.959864,E,1,08,0.9,507.99,M,28.4,M,,,*76
$GPZDA,033458.55,01,10,2013,00,00*6F
$GPGGA,033458.65,3443.868019,N,13924.960433,E,1,08,0.9,512.75,M,28.4,M,,,*79
$GPZDA,033458.65,01,10,2013,00,00*6C
$GPGGA,033458.74,3443.868485,N,13924.960996,E,1,08,0.9,517.39,M,28.4,M,,,*77
$GPZDA,033458.74,01,10,2013,00,00*6C
$GPGGA,033458.82,3443.868952,N,13924.961560,E,1,08,0.9,521.95,M,28.4,M,,,*7E
$GPZDA,033458.82,01,10,2013,00,00*65
$GPGGA,033458.90,3443.869423,N,13924.962129,E,1,08,0.9,526.49,M,28.4,M,,,*7B
$GPZDA,033458.90,01,10,2013,00,00*66
$GPGGA,033458.98,3443.869904,N,13924.962710,E,1,08,0.9,531.02,M,28.4,M,,,*7E
$GPZDA,033458.98,01,10,2013,00,00*6E
$GPGGA,033459.05,3443.870399,N,13924.963307,E,1,08,0.9,535.61,M,28.4,M,,,*7F
$GPZDA,033459.05,01,10,2013,00,00*6B
$GPGGA,033459.13,3443.870911,N,13924.963926,E,1,08,0.9,540.28,M,28.4,M,,,*74
$GPZDA,033459.13,01,10,2013,00,00*6C
$GPGGA,033459.20,3443.871448,N,13924.964574,E,1,08,0.9,545.09,M,28.4,M,,,*7E
$GPZDA,033459.20,01,10,2013,00,00*6C
$GPGGA,033459.28,3443.872018,N,13924.965262,E,1,08,0.9,550.11,M,28.4,M,,,*78
$GPZDA,033459.28,01,10,2013,00,00*64
$GPGGA,033459.36,3443.872634,N,13924.966006,E,1,08,0.9,555.45,M,28.4,M,,,*78
$GPZDA,033459.36,01,10,2013,00,00*6B
$GPGGA,033459.44,3443.873321,N,13924.966835,E,1,08,0.9,561.32,M,28.4,M,,,*72
$GPZDA,033459.44,01,10,2013,00,00*6E
$GPGGA,033459.53,3443.874135,N,13924.967818,E,1,08,0.9,568.15,M,28.4,M,,,*76
$GPZDA,033459.53,01,10,2013,00,00*68
$GPGGA,033459.62,3443.874914,N,13924.968758,E,1,08,0.9,574.61,M,28.4,M,,,*75
$GPZDA,033459.62,01,10,2013,00,00*6A
$GPGGA,033459.70,3443.875679,N,13924.969681,E,1,08,0.9,580.86,M,28.4,M,,,*75
$GPZDA,033459.70,01,10,2013,00,00*69
$GPGGA,033459.78,3443.876456,N,13924.970619,E,1,08,0.9,587.16,M,28.4,M,,,*76
$GPZDA,033459.78,01,10,2013,00,00*61
$GPGGA,033459.86,3443.877273,N,13924.971605,E,1,08,0.9,593.73,M,28.4,M,,,*7D
$GPZDA,033459.86,01,10,2013,00,00*60
$GPGGA,033459.94,3443.878054,N,13924.972547,E,1,08,0.9,599.96,M,28.4,M,,,*71
$GPZDA,033459.94,01,10,2013,00,00*63
$GPGGA,033460.01,3443.878826,N,13924.973479,E,1,08,0.9,606.08,M,28.4,M,,,*75
$GPZDA,033460.01,01,10,2013,00,00*65
$GPGGA,033460.08,3443.879619,N,13924.974436,E,1,08,0.9,612.33,M,28.4,M,,,*7E
$GPZDA,033460.08,01,10,2013,00,00*6C
$GPGGA,033460.16,3443.880468,N,13924.975460,E,1,08,0.9,618.98,M,28.4,M,,,*7A
$GPZDA,033460.16,01,10,2013,00,00*63
$GPGGA,033460.24,3443.881441,N,13924.976634,E,1,08,0.9,626.55,M,28.4,M,,,*7D
$GPZDA,033460.24,01,10,2013,00,00*62
$GPGGA,033460.33,3443.882472,N,13924.977878,E,1,08,0.9,634.52,M,28.4,M,,,*7B
$GPZDA,033460.33,01,10,2013,00,00*64
$GPGGA,033460.41,3443.883449,N,13924.979057,E,1,08,0.9,642.00,M,28.4,M,,,*7A
$GPZDA,033460.41,01,10,2013,00,00*61
$GPGGA,033460.48,3443.884429,N,13924.980239,E,1,08,0.9,649.45,M,28.4,M,,,*74
$GPZDA,033460.48,01,10,2013,00,00*68
$GPGGA,033460.55,3443.885292,N,13924.981280,E,1,08,0.9,655.96,M,28.4,M,,,*7F
$GPZDA,033460.55,01,10,2013,00,00*64
$GPGGA,033460.61,3443.886110,N,13924.982267,E,1,08,0.9,662.08,M,28.4,M,,,*7B
$GPZDA,033460.61,01,10,2013,00,00*63
$GPGGA,033460.67,3443.886916,N,13924.983239,E,1,08,0.9,668.07,M,28.4,M,,,*7C
$GPZDA,033460.67,01,10,2013,00,00*65
$GPGGA,033460.73,3443.887732,N,13924.984224,E,1,08,0.9,674.09,M,28.4,M,,,*78
$GPZDA,033460.73,01,10,2013,00,00*60
$GPGGA,033460.74,3443.887934,N,13924.984468,E,1,08,0.9,675.57,M,28.4,M,,,*73
$GPZDA,033460.74,01,10,2013,00,00*67
$GPGGA,033460.76,3443.888138,N,13924.984713,E,1,08,0.9,677.06,M,28.4,M,,,*73
$GPZDA,033460.76,01,10,2013,00,00*65
$GPGGA,033460.77,3443.888344,N,13924.984962,E,1,08,0.9,678.57,M,28.4,M,,,*78
$GPZDA,033460.77,01,10,2013,00,00*64
$GPGGA,033460.78,3443.888423,N,13924.985058,E,1,08,0.9,679.15,M,28.4,M,,,*77
$GPZDA,033460.78,01,10,2013,00,00*6B
$GPGGA,033460.78,3443.888444,N,13924.985083,E,1,08,0.9,679.31,M,28.4,M,,,*76
$GPZDA,033460.78,01,10,2013,00,00*6B
$GPGGA,033460.78,3443.888465,N,13924.985108,E,1,08,0.9,679.46,M,28.4,M,,,*77
$GPZDA,033460.78,01,10,2013,00,00*6B
$GPGGA,033460.78,3443.888482,N,13924.985129,E,1,08,0.9,679.58,M,28.4,M,,,*72
$GPZDA,033460.78,01,10,2013,00,00*6B
$GPGGA,033460.79,3443.888567,N,13924.985232,E,1,08,0.9,680.21,M,28.4,M,,,*78
$GPZDA,033460.79,01,10,2013,00,00*6A
$GPGGA,033460.82,3443.888995,N,13924.985748,E,1,08,0.9,683.32,M,28.4,M,,,*74
$GPZDA,033460.82,01,10,2013,00,00*6E
$GPGGA,033460.88,3443.889943,N,13924.986891,E,1,08,0.9,690.19,M,28.4,M,,,*77
$GPZDA,033460.88,01,10,2013,00,00*64
$GPGGA,033460.96,3443.891014,N,13924.988183,E,1,08,0.9,697.90,M,28.4,M,,,*78
$GPZDA,033460.96,01,10,2013,00,00*6B
$GPGGA,033461.04,3443.892115,N,13924.989511,E,1,08,0.9,705.77,M,28.4,M,,,*7C
$GPZDA,033461.04,01,10,2013,00,00*61
$GPGGA,033461.12,3443.893224,N,13924.990849,E,1,08,0.9,713.64,M,28.4,M,,,*76
$GPZDA,033461.12,01,10,2013,00,00*66
$GPGGA,033461.20,3443.894361,N,13924.992220,E,1,08,0.9,721.63,M,28.4,M,,,*71
$GPZDA,033461.20,01,10,2013,00,00*67
$GPGGA,033461.27,3443.895353,N,13924.993417,E,1,08,0.9,728.57,M,28.4,M,,,*7B
$GPZDA,033461.27,01,10,2013,00,00*60
$GPGGA,033461.34,3443.896297,N,13924.994555,E,1,08,0.9,735.12,M,28.4,M,,,*7E
$GPZDA,033461.34,01,10,2013,00,00*62
$GPGGA,033461.40,3443.897233,N,13924.995685,E,1,08,0.9,741.58,M,28.4,M,,,*70
$GPZDA,033461.40,01,10,2013,00,00*61
$GPGGA,033461.47,3443.898194,N,13924.996844,E,1,08,0.9,748.17,M,28.4,M,,,*74
$GPZDA,033461.47,01,10,2013,00,00*66
$GPGGA,033461.55,3443.899216,N,13924.998076,E,1,08,0.9,755.14,M,28.4,M,,,*77
$GPZDA,033461.55,01,10,2013,00,00*65
$GPGGA,033461.63,3443.900364,N,13924.999460,E,1,08,0.9,762.89,M,28.4,M,,,*75
$GPZDA,033461.63,01,10,2013,00,00*60
$GPGGA,033461.72,3443.901592,N,13925.000940,E,1,08,0.9,771.11,M,28.4,M,,,*7F
$GPZDA,033461.72,01,10,2013,00,00*60
$GPGGA,033461.82,3443.902862,N,13925.002473,E,1,08,0.9,779.53,M,28.4,M,,,*70
$GPZDA,033461.82,01,10,2013,00,00*6F
$GPGGA,033461.92,3443.904270,N,13925.004170,E,1,08,0.9,788.76,M,28.4,M,,,*77
$GPZDA,033461.92,01,10,2013,00,00*6E
$GPGGA,033462.01,3443.905508,N,13925.005663,E,1,08,0.9,796.78,M,28.4,M,,,*72
$GPZDA,033462.01,01,10,2013,00,00*67
$GPGGA,033462.10,3443.906715,N,13925.007119,E,1,08,0.9,804.51,M,28.4,M,,,*78
$GPZDA,033462.10,01,10,2013,00,00*67
$GPGGA,033462.20,3443.907980,N,13925.008643,E,1,08,0.9,812.52,M,28.4,M,,,*7B
$GPZDA,033462.20,01,10,2013,00,00*64
$GPGGA,033462.30,3443.909425,N,13925.010386,E,1,08,0.9,821.57,M,28.4,M,,,*76
$GPZDA,033462.30,01,10,2013,00,00*65
$GPGGA,033462.41,3443.910869,N,13925.012126,E,1,08,0.9,830.48,M,28.4,M,,,*78
$GPZDA,033462.41,01,10,2013,00,00*63
$GPGGA,033462.52,3443.912330,N,13925.013888,E,1,08,0.9,839.39,M,28.4,M,,,*7C
$GPZDA,033462.52,01,10,2013,00,00*61
$GPGGA,033462.63,3443.913698,N,13925.015537,E,1,08,0.9,847.63,M,28.4,M,,,*71
$GPZDA,033462.63,01,10,2013,00,00*63
$GPGGA,033462.72,3443.914934,N,13925.017027,E,1,08,0.9,854.98,M,28.4,M,,,*7F
$GPZDA,033462.72,01,10,2013,00,00*63
$GPGGA,033462.81,3443.916130,N,13925.018468,E,1,08,0.9,862.01,M,28.4,M,,,*78
$GPZDA,033462.81,01,10,2013,00,00*6F
$GPGGA,033462.90,3443.917331,N,13925.019915,E,1,08,0.9,869.00,M,28.4,M,,,*76
$GPZDA,033462.90,01,10,2013,00,00*6F
$GPGGA,033463.00,3443.918577,N,13925.021417,E,1,08,0.9,876.17,M,28.4,M,,,*79
$GPZDA,033463.00,01,10,2013,00,00*67
$GPGGA,033463.10,3443.919917,N,13925.023032,E,1,08,0.9,883.77,M,28.4,M,,,*7E
$GPZDA,033463.10,01,10,2013,00,00*66
$GPGGA,033463.22,3443.921436,N,13925.024863,E,1,08,0.9,892.27,M,28.4,M,,,*74
$GPZDA,033463.22,01,10,2013,00,00*67
$GPGGA,033463.35,3443.923115,N,13925.026886,E,1,08,0.9,901.50,M,28.4,M,,,*76
$GPZDA,033463.35,01,10,2013,00,00*61
$GPGGA,033463.50,3443.924970,N,13925.029123,E,1,08,0.9,911.50,M,28.4,M,,,*71
$GPZDA,033463.50,01,10,2013,00,00*62
$GPGGA,033463.69,3443.927335,N,13925.031972,E,1,08,0.9,923.94,M,28.4,M,,,*7F
$GPZDA,033463.69,01,10,2013,00,00*68
$GPGGA,033463.87,3443.929672,N,13925.034787,E,1,08,0.9,935.88,M,28.4,M,,,*7C
$GPZDA,033463.87,01,10,2013,00,00*68
$GPGGA,033464.04,3443.931862,N,13925.037426,E,1,08,0.9,946.76,M,28.4,M,,,*78
$GPZDA,033464.04,01,10,2013,00,00*64
$GPGGA,033464.21,3443.933922,N,13925.039908,E,1,08,0.9,956.73,M,28.4,M,,,*73
$GPZDA,033464.21,01,10,2013,00,00*63
$GPGGA,033464.34,3443.935594,N,13925.041921,E,1,08,0.9,964.62,M,28.4,M,,,*75
$GPZDA,033464.34,01,10,2013,00,00*67
$GPGGA,033464.47,3443.937128,N,13925.043770,E,1,08,0.9,971.71,M,28.4,M,,,*7E
$GPZDA,033464.47,01,10,2013,00,00*63
$GPGGA,033464.59,3443.938607,N,13925.045551,E,1,08,0.9,978.40,M,28.4,M,,,*78
$GPZDA,033464.59,01,10,2013,00,00*6C
$GPGGA,033464.71,3443.940070,N,13925.047313,E,1,08,0.9,984.89,M,28.4,M,,,*7F
$GPZDA,033464.71,01,10,2013,00,00*66
$GPGGA,033464.83,3443.941544,N,13925.049089,E,1,08,0.9,991.28,M,28.4,M,,,*70
$GPZDA,033464.83,01,10,2013,00,00*6B
$GPGGA,033464.95,3443.943052,N,13925.050904,E,1,08,0.9,997.68,M,28.4,M,,,*71
$GPZDA,033464.95,01,10,2013,00,00*6C
$GPGGA,033465.08,3443.944613,N,13925.052785,E,1,08,0.9,1004.15,M,28.4,M,,,*4D
$GPZDA,033465.08,01,10,2013,00,00*69
$GPGGA,033465.22,3443.946247,N,13925.054753,E,1,08,0.9,1010.75,M,28.4,M,,,*4C
$GPZDA,033465.22,01,10,2013,00,00*61
$GPGGA,033465.36,3443.947967,N,13925.056824,E,1,08,0.9,1017.50,M,28.4,M,,,*4C
$GPZDA,033465.36,01,10,2013,00,00*64
$GPGGA,033465.51,3443.949777,N,13925.059003,E,1,08,0.9,1024.39,M,28.4,M,,,*41
$GPZDA,033465.51,01,10,2013,00,00*65
$GPGGA,033465.67,3443.951661,N,13925.061270,E,1,08,0.9,1031.32,M,28.4,M,,,*49
$GPZDA,033465.67,01,10,2013,00,00*60
$GPGGA,033465.83,3443.953578,N,13925.063579,E,1,08,0.9,1038.13,M,28.4,M,,,*4C
$GPZDA,033465.83,01,10,2013,00,00*6A
$GPGGA,033465.99,3443.955483,N,13925.065872,E,1,08,0.9,1044.64,M,28.4,M,,,*4F
$GPZDA,033465.99,01,10,2013,00,00*61
$GPGGA,033466.14,3443.957340,N,13925.068108,E,1,08,0.9,1050.75,M,28.4,M,,,*4F
$GPZDA,033466.14,01,10,2013,00,00*67
$GPGGA,033466.30,3443.959139,N,13925.070273,E,1,08,0.9,1056.44,M,28.4,M,,,*49
$GPZDA,033466.30,01,10,2013,00,00*61
$GPGGA,033466.44,3443.960882,N,13925.072371,E,1,08,0.9,1061.73,M,28.4,M,,,*48
$GPZDA,033466.44,01,10,2013,00,00*62
$GPGGA,033466.59,3443.962579,N,13925.074413,E,1,08,0.9,1066.68,M,28.4,M,,,*47
$GPZDA,033466.59,01,10,2013,00,00*6E
$GPGGA,033466.73,3443.964241,N,13925.076412,E,1,08,0.9,1071.32,M,28.4,M,,,*4F
$GPZDA,033466.73,01,10,2013,00,00*66
$GPGGA,033466.87,3443.965876,N,13925.078380,E,1,08,0.9,1075.71,M,28.4,M,,,*4A
$GPZDA,033466.87,01,10,2013,00,00*6D
$GPGGA,033467.01,3443.967493,N,13925.080326,E,1,08,0.9,1079.85,M,28.4,M,,,*4C
$GPZDA,033467.01,01,10,2013,00,00*62
$GPGGA,033467.15,3443.969100,N,13925.082259,E,1,08,0.9,1083.79,M,28.4,M,,,*45
$GPZDA,033467.15,01,10,2013,00,00*67
$GPGGA,033467.29,3443.970703,N,13925.084187,E,1,08,0.9,1087.53,M,28.4,M,,,*4D
$GPZDA,033467.29,01,10,2013,00,00*68
$GPGGA,033467.43,3443.972305,N,13925.086114,E,1,08,0.9,1091.08,M,28.4,M,,,*40
$GPZDA,033467.43,01,10,2013,00,00*64
$GPGGA,033467.57,3443.973911,N,13925.088047,E,1,08,0.9,1094.45,M,28.4,M,,,*4E
$GPZDA,033467.57,01,10,2013,00,00*61
$GPGGA,033467.71,3443.975525,N,13925.089987,E,1,08,0.9,1097.65,M,28.4,M,,,*42
$GPZDA,033467.71,01,10,2013,00,00*65
$GPGGA,033467.85,3443.977148,N,13925.091940,E,1,08,0.9,1100.68,M,28.4,M,,,*44
$GPZDA,033467.85,01,10,2013,00,00*6E
$GPGGA,033468.00,3443.978783,N,13925.093907,E,1,08,0.9,1103.53,M,28.4,M,,,*42
$GPZDA,033468.00,01,10,2013,00,00*6C
$GPGGA,033468.14,3443.980432,N,13925.095890,E,1,08,0.9,1106.20,M,28.4,M,,,*41
$GPZDA,033468.14,01,10,2013,00,00*69
$GPGGA,033468.29,3443.982096,N,13925.097891,E,1,08,0.9,1108.69,M,28.4,M,,,*47
$GPZDA,033468.29,01,10,2013,00,00*67
$GPGGA,033468.44,3443.983777,N,13925.099912,E,1,08,0.9,1110.99,M,28.4,M,,,*47
$GPZDA,033468.44,01,10,2013,00,00*6C
$GPGGA,033468.59,3443.985476,N,13925.101954,E,1,08,0.9,1113.10,M,28.4,M,,,*4F
$GPZDA,033468.59,01,10,2013,00,00*60
$GPGGA,033468.74,3443.987195,N,13925.104021,E,1,08,0.9,1115.01,M,28.4,M,,,*42
$GPZDA,033468.74,01,10,2013,00,00*6F
$GPGGA,033468.90,3443.988936,N,13925.106114,E,1,08,0.9,1116.72,M,28.4,M,,,*44
$GPZDA,033468.90,01,10,2013,00,00*65
$GPGGA,033469.05,3443.990703,N,13925.108238,E,1,08,0.9,1118.21,M,28.4,M,,,*43
$GPZDA,033469.05,01,10,2013,00,00*68
$GPGGA,033469.22,3443.992500,N,13925.110398,E,1,08,0.9,1119.49,M,28.4,M,,,*48
$GPZDA,033469.22,01,10,2013,00,00*6D
$GPGGA,033469.38,3443.994335,N,13925.112603,E,1,08,0.9,1120.53,M,28.4,M,,,*41
$GPZDA,033469.38,01,10,2013,00,00*66
$GPGGA,033469.55,3443.996218,N,13925.114867,E,1,08,0.9,1121.32,M,28.4,M,,,*4A
$GPZDA,033469.55,01,10,2013,00,00*6D
$GPGGA,033469.73,3443.998167,N,13925.117208,E,1,08,0.9,1121.85,M,28.4,M,,,*47
$GPZDA,033469.73,01,10,2013,00,00*69
$GPGGA,033469.91,3444.000210,N,13925.119663,E,1,08,0.9,1122.08,M,28.4,M,,,*46
$GPZDA,033469.91,01,10,2013,00,00*65
$GPGGA,033470.10,3444.002349,N,13925.122233,E,1,08,0.9,1121.97,M,28.4,M,,,*44
$GPZDA,033470.10,01,10,2013,00,00*64
$GPGGA,033470.30,3444.004474,N,13925.124786,E,1,08,0.9,1121.50,M,28.4,M,,,*4F
$GPZDA,033470.30,01,10,2013,00,00*66
$GPGGA,033470.59,3444.007629,N,13925.128576,E,1,08,0.9,1120.13,M,28.4,M,,,*4E
$GPZDA,033470.59,01,10,2013,00,00*69
$GPGGA,033470.78,3444.009787,N,13925.131168,E,1,08,0.9,1118.72,M,28.4,M,,,*49
$GPZDA,033470.78,01,10,2013,00,00*6A
$GPGGA,033470.98,3444.011940,N,13925.133753,E,1,08,0.9,1116.94,M,28.4,M,,,*41
$GPZDA,033470.98,01,10,2013,00,00*64
$GPGGA,033471.16,3444.013853,N,13925.136051,E,1,08,0.9,1115.03,M,28.4,M,,,*4A
$GPZDA,033471.16,01,10,2013,00,00*63
$GPGGA,033471.31,3444.015556,N,13925.138095,E,1,08,0.9,1113.07,M,28.4,M,,,*45
$GPZDA,033471.31,01,10,2013,00,00*66
$GPGGA,033471.46,3444.017125,N,13925.139979,E,1,08,0.9,1111.05,M,28.4,M,,,*4D
$GPZDA,033471.46,01,10,2013,00,00*66
$GPGGA,033471.59,3444.018601,N,13925.141751,E,1,08,0.9,1108.95,M,28.4,M,,,*47
$GPZDA,033471.59,01,10,2013,00,00*68
$GPGGA,033471.72,3444.020008,N,13925.143440,E,1,08,0.9,1106.77,M,28.4,M,,,*49
$GPZDA,033471.72,01,10,2013,00,00*61
$GPGGA,033471.85,3444.021362,N,13925.145065,E,1,08,0.9,1104.51,M,28.4,M,,,*4C
$GPZDA,033471.85,01,10,2013,00,00*69
$GPGGA,033471.97,3444.022677,N,13925.146643,E,1,08,0.9,1102.16,M,28.4,M,,,*49
$GPZDA,033471.97,01,10,2013,00,00*6A
$GPGGA,033472.09,3444.023963,N,13925.148187,E,1,08,0.9,1099.71,M,28.4,M,,,*45
$GPZDA,033472.09,01,10,2013,00,00*6E
$GPGGA,033472.21,3444.025230,N,13925.149707,E,1,08,0.9,1097.14,M,28.4,M,,,*46
$GPZDA,033472.21,01,10,2013,00,00*64
$GPGGA,033472.33,3444.026486,N,13925.151214,E,1,08,0.9,1094.45,M,28.4,M,,,*44
$GPZDA,033472.33,01,10,2013,00,00*67
$GPGGA,033472.45,3444.027742,N,13925.152721,E,1,08,0.9,1091.61,M,28.4,M,,,*4C
$GPZDA,033472.45,01,10,2013,00,00*66
$GPGGA,033472.57,3444.029009,N,13925.154241,E,1,08,0.9,1088.60,M,28.4,M,,,*45
$GPZDA,033472.57,01,10,2013,00,00*65
$GPGGA,033472.69,3444.030302,N,13925.155792,E,1,08,0.9,1085.37,M,28.4,M,,,*4D
$GPZDA,033472.69,01,10,2013,00,00*68
$GPGGA,033472.82,3444.031641,N,13925.157398,E,1,08,0.9,1081.86,M,28.4,M,,,*49
$GPZDA,033472.82,01,10,2013,00,00*6D
$GPGGA,033472.96,3444.033060,N,13925.159100,E,1,08,0.9,1077.95,M,28.4,M,,,*4D
$GPZDA,033472.96,01,10,2013,00,00*68
$GPGGA,033473.11,3444.034628,N,13925.160981,E,1,08,0.9,1073.41,M,28.4,M,,,*48
$GPZDA,033473.11,01,10,2013,00,00*66
$GPGGA,033473.25,3444.036124,N,13925.162774,E,1,08,0.9,1068.87,M,28.4,M,,,*40
$GPZDA,033473.25,01,10,2013,00,00*61
$GPGGA,033473.39,3444.037571,N,13925.164510,E,1,08,0.9,1064.28,M,28.4,M,,,*47
$GPZDA,033473.39,01,10,2013,00,00*6C
$GPGGA,033473.53,3444.039009,N,13925.166234,E,1,08,0.9,1059.52,M,28.4,M,,,*4F
$GPZDA,033473.53,01,10,2013,00,00*60
$GPGGA,033473.67,3444.040479,N,13925.167997,E,1,08,0.9,1054.47,M,28.4,M,,,*4F
$GPZDA,033473.67,01,10,2013,00,00*67
$GPGGA,033473.81,3444.041925,N,13925.169730,E,1,08,0.9,1049.32,M,28.4,M,,,*41
$GPZDA,033473.81,01,10,2013,00,00*6F
$GPGGA,033473.95,3444.043295,N,13925.171373,E,1,08,0.9,1044.26,M,28.4,M,,,*44
$GPZDA,033473.95,01,10,2013,00,00*6A
$GPGGA,033474.08,3444.044657,N,13925.173006,E,1,08,0.9,1039.07,M,28.4,M,,,*40
$GPZDA,033474.08,01,10,2013,00,00*69
$GPGGA,033474.22,3444.046081,N,13925.174712,E,1,08,0.9,1033.47,M,28.4,M,,,*4C
$GPZDA,033474.22,01,10,2013,00,00*61
$GPGGA,033474.38,3444.047707,N,13925.176662,E,1,08,0.9,1026.86,M,28.4,M,,,*42
$GPZDA,033474.38,01,10,2013,00,00*6A
$GPGGA,033474.52,3444.049138,N,13925.178376,E,1,08,0.9,1020.85,M,28.4,M,,,*41
$GPZDA,033474.52,01,10,2013,00,00*66
$GPGGA,033474.65,3444.050420,N,13925.179913,E,1,08,0.9,1015.29,M,28.4,M,,,*49
$GPZDA,033474.65,01,10,2013,00,00*62
$GPGGA,033474.77,3444.051633,N,13925.181367,E,1,08,0.9,1009.89,M,28.4,M,,,*42
$GPZDA,033474.77,01,10,2013,00,00*61
$GPGGA,033474.88,3444.052743,N,13925.182697,E,1,08,0.9,1004.82,M,28.4,M,,,*48
$GPZDA,033474.88,01,10,2013,00,00*61
$GPGGA,033474.98,3444.053759,N,13925.183915,E,1,08,0.9,1000.07,M,28.4,M,,,*4E
$GPZDA,033474.98,01,10,2013,00,00*60
$GPGGA,033475.07,3444.054720,N,13925.185066,E,1,08,0.9,995.48,M,28.4,M,,,*74
$GPZDA,033475.07,01,10,2013,00,00*67
$GPGGA,033475.17,3444.055647,N,13925.186177,E,1,08,0.9,990.95,M,28.4,M,,,*73
$GPZDA,033475.17,01,10,2013,00,00*66
$GPGGA,033475.26,3444.056558,N,13925.187267,E,1,08,0.9,986.42,M,28.4,M,,,*71
$GPZDA,033475.26,01,10,2013,00,00*64
$GPGGA,033475.35,3444.057466,N,13925.188355,E,1,08,0.9,981.80,M,28.4,M,,,*78
$GPZDA,033475.35,01,10,2013,00,00*66
$GPGGA,033475.44,3444.058387,N,13925.189459,E,1,08,0.9,977.02,M,28.4,M,,,*70
$GPZDA,033475.44,01,10,2013,00,00*60
$GPGGA,033475.54,3444.059342,N,13925.190603,E,1,08,0.9,971.97,M,28.4,M,,,*76
$GPZDA,033475.54,01,10,2013,00,00*61
$GPGGA,033475.64,3444.060365,N,13925.191828,E,1,08,0.9,966.44,M,28.4,M,,,*74
$GPZDA,033475.64,01,10,2013,00,00*62
$GPGGA,033475.75,3444.061406,N,13925.193074,E,1,08,0.9,960.71,M,28.4,M,,,*74
$GPZDA,033475.75,01,10,2013,00,00*62
$GPGGA,033475.85,3444.062388,N,13925.194250,E,1,08,0.9,955.18,M,28.4,M,,,*73
$GPZDA,033475.85,01,10,2013,00,00*6D
$GPGGA,033475.95,3444.063346,N,13925.195398,E,1,08,0.9,949.70,M,28.4,M,,,*76
$GPZDA,033475.95,01,10,2013,00,00*6C
$GPGGA,033476.05,3444.064309,N,13925.196550,E,1,08,0.9,944.09,M,28.4,M,,,*72
$GPZDA,033476.05,01,10,2013,00,00*66
$GPGGA,033476.15,3444.065305,N,13925.197743,E,1,08,0.9,938.19,M,28.4,M,,,*75
$GPZDA,033476.15,01,10,2013,00,00*67
$GPGGA,033476.25,3444.066247,N,13925.198871,E,1,08,0.9,932.53,M,28.4,M,,,*77
$GPZDA,033476.25,01,10,2013,00,00*64
$GPGGA,033476.34,3444.067145,N,13925.199946,E,1,08,0.9,927.05,M,28.4,M,,,*74
$GPZDA,033476.34,01,10,2013,00,00*64
$GPGGA,033476.44,3444.068032,N,13925.201008,E,1,08,0.9,921.57,M,28.4,M,,,*7D
$GPZDA,033476.44,01,10,2013,00,00*63
$GPGGA,033476.53,3444.068934,N,13925.202088,E,1,08,0.9,915.92,M,28.4,M,,,*71
$GPZDA,033476.53,01,10,2013,00,00*65
$GPGGA,033476.63,3444.069888,N,13925.203230,E,1,08,0.9,909.86,M,28.4,M,,,*7D
$GPZDA,033476.63,01,10,2013,00,00*66
$GPGGA,033476.74,3444.070942,N,13925.204492,E,1,08,0.9,903.06,M,28.4,M,,,*7F
$GPZDA,033476.74,01,10,2013,00,00*60
$GPGGA,033476.84,3444.071890,N,13925.205626,E,1,08,0.9,896.85,M,28.4,M,,,*75
$GPZDA,033476.84,01,10,2013,00,00*6F
$GPGGA,033476.93,3444.072784,N,13925.206697,E,1,08,0.9,890.90,M,28.4,M,,,*71
$GPZDA,033476.93,01,10,2013,00,00*69
$GPGGA,033477.02,3444.073661,N,13925.207746,E,1,08,0.9,884.99,M,28.4,M,,,*73
$GPZDA,033477.02,01,10,2013,00,00*60
$GPGGA,033477.12,3444.074547,N,13925.208806,E,1,08,0.9,878.93,M,28.4,M,,,*7F
$GPZDA,033477.12,01,10,2013,00,00*61
$GPGGA,033477.20,3444.075364,N,13925.209784,E,1,08,0.9,873.25,M,28.4,M,,,*7A
$GPZDA,033477.20,01,10,2013,00,00*60
$GPGGA,033477.29,3444.076137,N,13925.210710,E,1,08,0.9,867.79,M,28.4,M,,,*7D
$GPZDA,033477.29,01,10,2013,00,00*69
$GPGGA,033477.37,3444.076891,N,13925.211612,E,1,08,0.9,862.40,M,28.4,M,,,*7A
$GPZDA,033477.37,01,10,2013,00,00*66
$GPGGA,033477.45,3444.077643,N,13925.212511,E,1,08,0.9,856.96,M,28.4,M,,,*70
$GPZDA,033477.45,01,10,2013,00,00*63
$GPGGA,033477.53,3444.078410,N,13925.213429,E,1,08,0.9,851.32,M,28.4,M,,,*7E
$GPZDA,033477.53,01,10,2013,00,00*64
$GPGGA,033477.62,3444.079218,N,13925.214395,E,1,08,0.9,845.31,M,28.4,M,,,*72
$GPZDA,033477.62,01,10,2013,00,00*66
$GPGGA,033477.71,3444.080085,N,13925.215432,E,1,08,0.9,838.76,M,28.4,M,,,*72
$GPZDA,033477.71,01,10,2013,00,00*64
$GPGGA,033477.80,3444.080889,N,13925.216394,E,1,08,0.9,832.61,M,28.4,M,,,*7C
$GPZDA,033477.80,01,10,2013,00,00*6A
$GPGGA,033477.88,3444.081667,N,13925.217325,E,1,08,0.9,826.58,M,28.4,M,,,*7F
$GPZDA,033477.88,01,10,2013,00,00*62
$GPGGA,033477.97,3444.082446,N,13925.218256,E,1,08,0.9,820.47,M,28.4,M,,,*71
$GPZDA,033477.97,01,10,2013,00,00*6C
$GPGGA,033478.06,3444.083252,N,13925.219220,E,1,08,0.9,814.09,M,28.4,M,,,*79
$GPZDA,033478.06,01,10,2013,00,00*6B
$GPGGA,033478.15,3444.084048,N,13925.220172,E,1,08,0.9,807.71,M,28.4,M,,,*76
$GPZDA,033478.15,01,10,2013,00,00*69
$GPGGA,033478.23,3444.084801,N,13925.221073,E,1,08,0.9,801.62,M,28.4,M,,,*73
$GPZDA,033478.23,01,10,2013,00,00*6C
$GPGGA,033478.31,3444.085541,N,13925.221958,E,1,08,0.9,795.57,M,28.4,M,,,*7C
$GPZDA,033478.31,01,10,2013,00,00*6F
$GPGGA,033478.39,3444.086293,N,13925.222857,E,1,08,0.9,789.37,M,28.4,M,,,*79
$GPZDA,033478.39,01,10,2013,00,00*67
$GPGGA,033478.48,3444.087087,N,13925.223807,E,1,08,0.9,782.76,M,28.4,M,,,*73
$GPZDA,033478.48,01,10,2013,00,00*61
$GPGGA,033478.58,3444.087945,N,13925.224832,E,1,08,0.9,775.55,M,28.4,M,,,*7D
$GPZDA,033478.58,01,10,2013,00,00*60
$GPGGA,033478.66,3444.088726,N,13925.225766,E,1,08,0.9,768.91,M,28.4,M,,,*7F
$GPZDA,033478.66,01,10,2013,00,00*6D
$GPGGA,033478.75,3444.089474,N,13925.226661,E,1,08,0.9,762.47,M,28.4,M,,,*7C
$GPZDA,033478.75,01,10,2013,00,00*6F
$GPGGA,033478.83,3444.090218,N,13925.227550,E,1,08,0.9,756.01,M,28.4,M,,,*74
$GPZDA,033478.83,01,10,2013,00,00*66
$GPGGA,033478.92,3444.090985,N,13925.228467,E,1,08,0.9,749.27,M,28.4,M,,,*7B
$GPZDA,033478.92,01,10,2013,00,00*66
$GPGGA,033479.00,3444.091701,N,13925.229323,E,1,08,0.9,742.90,M,28.4,M,,,*73
$GPZDA,033479.00,01,10,2013,00,00*6C
$GPGGA,033479.08,3444.092384,N,13925.230139,E,1,08,0.9,736.76,M,28.4,M,,,*7B
$GPZDA,033479.08,01,10,2013,00,00*64
$GPGGA,033479.15,3444.093058,N,13925.230945,E,1,08,0.9,730.62,M,28.4,M,,,*74
$GPZDA,033479.15,01,10,2013,00,00*68
$GPGGA,033479.23,3444.093744,N,13925.231765,E,1,08,0.9,724.32,M,28.4,M,,,*76
$GPZDA,033479.23,01,10,2013,00,00*6D
$GPGGA,033479.31,3444.094466,N,13925.232628,E,1,08,0.9,717.60,M,28.4,M,,,*7D
$GPZDA,033479.31,01,10,2013,00,00*6E
$GPGGA,033479.40,3444.095225,N,13925.233535,E,1,08,0.9,710.47,M,28.4,M,,,*77
$GPZDA,033479.40,01,10,2013,00,00*68
$GPGGA,033479.48,3444.095930,N,13925.234377,E,1,08,0.9,703.77,M,28.4,M,,,*76
$GPZDA,033479.48,01,10,2013,00,00*60
$GPGGA,033479.56,3444.096617,N,13925.235198,E,1,08,0.9,697.17,M,28.4,M,,,*78
$GPZDA,033479.56,01,10,2013,00,00*6F
$GPGGA,033479.64,3444.097312,N,13925.236028,E,1,08,0.9,690.44,M,28.4,M,,,*70
$GPZDA,033479.64,01,10,2013,00,00*6E
$GPGGA,033479.73,3444.098044,N,13925.236903,E,1,08,0.9,683.28,M,28.4,M,,,*71
$GPZDA,033479.73,01,10,2013,00,00*68
$GPGGA,033479.81,3444.098748,N,13925.237744,E,1,08,0.9,676.35,M,28.4,M,,,*7D
$GPZDA,033479.81,01,10,2013,00,00*65
$GPGGA,033479.89,3444.099424,N,13925.238552,E,1,08,0.9,669.63,M,28.4,M,,,*7A
$GPZDA,033479.89,01,10,2013,00,00*6D
$GPGGA,033479.97,3444.100102,N,13925.239361,E,1,08,0.9,662.84,M,28.4,M,,,*70
$GPZDA,033479.97,01,10,2013,00,00*62
$GPGGA,033480.05,3444.100810,N,13925.240207,E,1,08,0.9,655.70,M,28.4,M,,,*77
$GPZDA,033480.05,01,10,2013,00,00*6F
$GPGGA,033480.14,3444.101592,N,13925.241141,E,1,08,0.9,647.74,M,28.4,M,,,*76
$GPZDA,033480.14,01,10,2013,00,00*6F
$GPGGA,033480.23,3444.102298,N,13925.241984,E,1,08,0.9,640.48,M,28.4,M,,,*75
$GPZDA,033480.23,01,10,2013,00,00*6B
$GPGGA,033480.31,3444.102973,N,13925.242791,E,1,08,0.9,633.47,M,28.4,M,,,*7A
$GPZDA,033480.31,01,10,2013,00,00*68
$GPGGA,033480.39,3444.103649,N,13925.243598,E,1,08,0.9,626.40,M,28.4,M,,,*7C
$GPZDA,033480.39,01,10,2013,00,00*60
$GPGGA,033480.47,3444.104355,N,13925.244442,E,1,08,0.9,618.93,M,28.4,M,,,*78
$GPZDA,033480.47,01,10,2013,00,00*69
$GPGGA,033480.55,3444.105019,N,13925.245234,E,1,08,0.9,611.85,M,28.4,M,,,*79
$GPZDA,033480.55,01,10,2013,00,00*6A
$GPGGA,033480.63,3444.105657,N,13925.245996,E,1,08,0.9,604.96,M,28.4,M,,,*75
$GPZDA,033480.63,01,10,2013,00,00*6F
$GPGGA,033480.71,3444.106295,N,13925.246759,E,1,08,0.9,598.01,M,28.4,M,,,*79
$GPZDA,033480.71,01,10,2013,00,00*6C
$GPGGA,033480.79,3444.106960,N,13925.247552,E,1,08,0.9,590.70,M,28.4,M,,,*76
$GPZDA,033480.79,01,10,2013,00,00*64
$GPGGA,033480.88,3444.107681,N,13925.248413,E,1,08,0.9,582.68,M,28.4,M,,,*78
$GPZDA,033480.88,01,10,2013,00,00*6A
$GPGGA,033480.96,3444.108339,N,13925.249198,E,1,08,0.9,575.31,M,28.4,M,,,*7D
$GPZDA,033480.96,01,10,2013,00,00*65
$GPGGA,033481.04,3444.108977,N,13925.249960,E,1,08,0.9,568.09,M,28.4,M,,,*7F
$GPZDA,033481.04,01,10,2013,00,00*6F
$GPGGA,033481.12,3444.109624,N,13925.250732,E,1,08,0.9,560.71,M,28.4,M,,,*76
$GPZDA,033481.12,01,10,2013,00,00*68
$GPGGA,033481.20,3444.110313,N,13925.251555,E,1,08,0.9,552.78,M,28.4,M,,,*74
$GPZDA,033481.20,01,10,2013,00,00*69
$GPGGA,033481.28,3444.110975,N,13925.252344,E,1,08,0.9,545.12,M,28.4,M,,,*79
$GPZDA,033481.28,01,10,2013,00,00*61
$GPGGA,033481.36,3444.111616,N,13925.253110,E,1,08,0.9,537.63,M,28.4,M,,,*7C
$GPZDA,033481.36,01,10,2013,00,00*6E
$GPGGA,033481.44,3444.112270,N,13925.253891,E,1,08,0.9,529.94,M,28.4,M,,,*79
$GPZDA,033481.44,01,10,2013,00,00*6B
$GPGGA,033481.53,3444.112975,N,13925.254732,E,1,08,0.9,521.59,M,28.4,M,,,*79
$GPZDA,033481.53,01,10,2013,00,00*6D
$GPGGA,033481.62,3444.113654,N,13925.255542,E,1,08,0.9,513.48,M,28.4,M,,,*73
$GPZDA,033481.62,01,10,2013,00,00*6F
$GPGGA,033481.70,3444.114292,N,13925.256304,E,1,08,0.9,505.79,M,28.4,M,,,*7B
$GPZDA,033481.70,01,10,2013,00,00*6C
$GPGGA,033481.78,3444.114926,N,13925.257060,E,1,08,0.9,498.09,M,28.4,M,,,*75
$GPZDA,033481.78,01,10,2013,00,00*64
$GPGGA,033481.86,3444.115589,N,13925.257851,E,1,08,0.9,489.97,M,28.4,M,,,*71
$GPZDA,033481.86,01,10,2013,00,00*65
$GPGGA,033481.95,3444.116234,N,13925.258620,E,1,08,0.9,481.99,M,28.4,M,,,*70
$GPZDA,033481.95,01,10,2013,00,00*67
$GPGGA,033482.02,3444.116852,N,13925.259358,E,1,08,0.9,474.27,M,28.4,M,,,*73
$GPZDA,033482.02,01,10,2013,00,00*6A
$GPGGA,033482.10,3444.117476,N,13925.260102,E,1,08,0.9,466.41,M,28.4,M,,,*7F
$GPZDA,033482.10,01,10,2013,00,00*69
$GPGGA,033482.12,3444.117585,N,13925.260232,E,1,08,0.9,465.03,M,28.4,M,,,*75
$GPZDA,033482.12,01,10,2013,00,00*6B
