$GPGGA,033456.78,3443.863540,N,13924.955020,E,1,08,0.9,465.00,M,28.4,M,,,*7A
$GPZDA,033456.78,01,10,2013,00,00*6E
$GPGGA,033456.78,3443.863540,N,13924.955020,E,1,08,0.9,465.00,M,28.4,M,,,*7A
$GPZDA,033456.78,01,10,2013,00,00*6E
$GPGGA,033456.79,3443.863540,N,13924.955020,E,1,08,0.9,465.00,M,28.4,M,,,*7B
$GPZDA,033456.79,01,10,2013,00,00*6F
$GPGGA,033456.81,3443.863541,N,13924.955021,E,1,08,0.9,465.01,M,28.4,M,,,*7D
$GPZDA,033456.81,01,10,2013,00,00*68
$GPGGA,033456.84,3443.863545,N,13924.955025,E,1,08,0.9,465.05,M,28.4,M,,,*7C
$GPZDA,033456.84,01,10,2013,00,00*6D
$GPGGA,033456.89,3443.863554,N,13924.955037,E,1,08,0.9,465.15,M,28.4,M,,,*73
$GPZDA,033456.89,01,10,2013,00,00*60
$GPGGA,033456.95,3443.863576,N,13924.955064,E,1,08,0.9,465.40,M,28.4,M,,,*78
$GPZDA,033456.95,01,10,2013,00,00*6D
$GPGGA,033457.04,3443.863626,N,13924.955124,E,1,08,0.9,465.94,M,28.4,M,,,*7B
$GPZDA,033457.04,01,10,2013,00,00*64
$GPGGA,033457.17,3443.863728,N,13924.955248,E,1,08,0.9,467.05,M,28.4,M,,,*75
$GPZDA,033457.17,01,10,2013,00,00*66
$GPGGA,033457.31,3443.863886,N,13924.955438,E,1,08,0.9,468.77,M,28.4,M,,,*71
$GPZDA,033457.31,01,10,2013,00,00*62
$GPGGA,033457.44,3443.864084,N,13924.955678,E,1,08,0.9,470.94,M,28.4,M,,,*7C
$GPZDA,033457.44,01,10,2013,00,00*60
$GPGGA,033457.56,3443.864308,N,13924.955949,E,1,08,0.9,473.38,M,28.4,M,,,*70
$GPZDA,033457.56,01,10,2013,00,00*63
$GPGGA,033457.68,3443.864559,N,13924.956252,E,1,08,0.9,476.13,M,28.4,M,,,*71
$GPZDA,033457.68,01,10,2013,00,00*6E
$GPGGA,033457.80,3443.864842,N,13924.956594,E,1,08,0.9,479.22,M,28.4,M,,,*70
$GPZDA,033457.80,01,10,2013,00,00*68
$GPGGA,033457.92,3443.865167,N,13924.956986,E,1,08,0.9,482.76,M,28.4,M,,,*76
$GPZDA,033457.92,01,10,2013,00,00*6B
$GPGGA,033458.05,3443.865553,N,13924.957453,E,1,08,0.9,486.95,M,28.4,M,,,*79
$GPZDA,033458.05,01,10,2013,00,00*6A
$GPGGA,033458.18,3443.866017,N,13924.958014,E,1,08,0.9,491.94,M,28.4,M,,,*7C
$GPZDA,033458.18,01,10,2013,00,00*66
$GPGGA,033458.33,3443.866558,N,13924.958668,E,1,08,0.9,497.69,M,28.4,M,,,*72
$GPZDA,033458.33,01,10,2013,00,00*6F
$GPGGA,033458.45,3443.867066,N,13924.959281,E,1,08,0.9,503.01,M,28.4,M,,,*7A
$GPZDA,033458.45,01,10,2013,00,00*6E
$GPGGA,033458.55,3443.867548,N,13924.959864,E,1,08,0.9,507.99,M,28.4,M,,,*76
$GPZDA,033458.55,01,10,2013,00,00*6F
$GPGGA,033458.65,3443.868019,N,13924.960433,E,1,08,0.9,512.75,M,28.4,M,,,*79
$GPZDA,033458.65,01,10,2013,00,00*6C
$GPGGA,033458.74,3443.868485,N,13924.960996,E,1,08,0.9,517.39,M,28.4,M,,,*77
$GPZDA,033458.74,01,10,2013,00,00*6C
$GPGGA,033458.82,3443.868952,N,13924.961560,E,1,08,0.9,521.95,M,28.4,M,,,*7E
$GPZDA,033458.82,01,10,2013,00,00*65
$GPGGA,033458.90,3443.869423,N,13924.962129,E,1,08,0.9,526.49,M,28.4,M,,,*7B
$GPZDA,033458.90,01,10,2013,00,00*66
$GPGGA,033458.98,3443.869904,N,13924.962710,E,1,08,0.9,531.02,M,28.4,M,,,*7E
$GPZDA,033458.98,01,10,2013,00,00*6E
$GPGGA,033459.05,3443.870399,N,13924.963307,E,1,08,0.9,535.61,M,28.4,M,,,*7F
$GPZDA,033459.05,01,10,2013,00,00*6B
$GPGGA,033459.13,3443.870911,N,13924.963926,E,1,08,0.9,540.28,M,28.4,M,,,*74
$GPZDA,033459.13,01,10,2013,00,00*6C
$GPGGA,033459.20,3443.871448,N,13924.964574,E,1,08,0.9,545.09,M,28.4,M,,,*7E
$GPZDA,033459.20,01,10,2013,00,00*6C
$GPGGA,033459.28,3443.872018,N,13924.965262,E,1,08,0.9,550.11,M,28.4,M,,,*78
$GPZDA,033459.28,01,10,2013,00,00*64
$GPGGA,033459.36,3443.872634,N,13924.966006,E,1,08,0.9,555.45,M,28.4,M,,,*78
$GPZDA,033459.36,01,10,2013,00,00*6B
$GPGGA,033459.44,3443.873321,N,13924.966835,E,1,08,0.9,561.32,M,28.4,M,,,*72
$GPZDA,033459.44,01,10,2013,00,00*6E
$GPGGA,033459.53,3443.874135,N,13924.967818,E,1,08,0.9,568.15,M,28.4,M,,,*76
$GPZDA,033459.53,01,10,2013,00,00*68
$GPGGA,033459.62,3443.874914,N,13924.968758,E,1,08,0.9,574.61,M,28.4,M,,,*75
$GPZDA,033459.62,01,10,2013,00,00*6A
$GPGGA,033459.70,3443.875679,N,13924.969681,E,1,08,0.9,580.86,M,28.4,M,,,*75
$GPZDA,033459.70,01,10,2013,00,00*69
$GPGGA,033459.78,3443.876456,N,13924.970619,E,1,08,0.9,587.16,M,28.4,M,,,*76
$GPZDA,033459.78,01,10,2013,00,00*61
$GPGGA,033459.86,3443.877273,N,13924.971605,E,1,08,0.9,593.73,M,28.4,M,,,*7D
$GPZDA,033459.86,01,10,2013,00,00*60
$GPGGA,033459.94,3443.878054,N,13924.972547,E,1,08,0.9,599.96,M,28.4,M,,,*71
$GPZDA,033459.94,01,10,2013,00,00*63
$GPGGA,033460.01,3443.878826,N,13924.973479,E,1,08,0.9,606.08,M,28.4,M,,,*75
$GPZDA,033460.01,01,10,2013,00,00*65
$GPGGA,033460.08,3443.879619,N,13924.974436,E,1,08,0.9,612.33,M,28.4,M,,,*7E
$GPZDA,033460.08,01,10,2013,00,00*6C
$GPGGA,033460.16,3443.880468,N,13924.975460,E,1,08,0.9,618.98,M,28.4,M,,,*7A
$GPZDA,033460.16,01,10,2013,00,00*63
$GPGGA,033460.24,3443.881441,N,13924.976634,E,1,08,0.9,626.55,M,28.4,M,,,*7D
$GPZDA,033460.24,01,10,2013,00,00*62
$GPGGA,033460.33,3443.882472,N,13924.977878,E,1,08,0.9,634.52,M,28.4,M,,,*7B
$GPZDA,033460.33,01,10,2013,00,00*64
$GPGGA,033460.41,3443.883449,N,13924.979057,E,1,08,0.9,642.00,M,28.4,M,,,*7A
$GPZDA,033460.41,01,10,2013,00,00*61
$GPGGA,033460.48,3443.884429,N,13924.980239,E,1,08,0.9,649.45,M,28.4,M,,,*74
$GPZDA,033460.48,01,10,2013,00,00*68
$GPGGA,033460.55,3443.885292,N,13924.981280,E,1,08,0.9,655.96,M,28.4,M,,,*7F
$GPZDA,033460.55,01,10,2013,00,00*64
$GPGGA,033460.61,3443.886110,N,13924.982267,E,1,08,0.9,662.08,M,28.4,M,,,*7B
$GPZDA,033460.61,01,10,2013,00,00*63
$GPGGA,033460.67,3443.886916,N,13924.983239,E,1,08,0.9,668.07,M,28.4,M,,,*7C
$GPZDA,033460.67,01,10,2013,00,00*65
$GPGGA,033460.73,3443.887732,N,13924.984225,E,1,08,0.9,674.09,M,28.4,M,,,*79
$GPZDA,033460.73,01,10,2013,00,00*60
$GPGGA,033460.74,3443.887934,N,13924.984468,E,1,08,0.9,675.57,M,28.4,M,,,*73
$GPZDA,033460.74,01,10,2013,00,00*67
$GPGGA,033460.76,3443.888138,N,13924.984713,E,1,08,0.9,677.06,M,28.4,M,,,*73
$GPZDA,033460.76,01,10,2013,00,00*65
$GPGGA,033460.77,3443.888344,N,13924.984962,E,1,08,0.9,678.57,M,28.4,M,,,*78
$GPZDA,033460.77,01,10,2013,00,00*64
$GPGGA,033460.78,3443.888423,N,13924.985058,E,1,08,0.9,679.15,M,28.4,M,,,*77
$GPZDA,033460.78,01,10,2013,00,00*6B
$GPGGA,033460.78,3443.888444,N,13924.985083,E,1,08,0.9,679.31,M,28.4,M,,,*76
$GPZDA,033460.78,01,10,2013,00,00*6B
$GPGGA,033460.78,3443.888465,N,13924.985108,E,1,08,0.9,679.46,M,28.4,M,,,*77
$GPZDA,033460.78,01,10,2013,00,00*6B
$GPGGA,033460.78,3443.888482,N,13924.985129,E,1,08,0.9,679.58,M,28.4,M,,,*72
$GPZDA,033460.78,01,10,2013,00,00*6B
$GPGGA,033460.79,3443.888567,N,13924.985232,E,1,08,0.9,680.21,M,28.4,M,,,*78
$GPZDA,033460.79,01,10,2013,00,00*6A
$GPGGA,033460.82,3443.888995,N,13924.985748,E,1,08,0.9,683.32,M,28.4,M,,,*74
$GPZDA,033460.82,01,10,2013,00,00*6E
$GPGGA,033460.88,3443.889943,N,13924.986891,E,1,08,0.9,690.19,M,28.4,M,,,*77
$GPZDA,033460.88,01,10,2013,00,00*64
$GPGGA,033460.96,3443.891014,N,13924.988183,E,1,08,0.9,697.90,M,28.4,M,,,*78
$GPZDA,033460.96,01,10,2013,00,00*6B
$GPGGA,033461.04,3443.892115,N,13924.989511,E,1,08,0.9,705.77,M,28.4,M,,,*7C
$GPZDA,033461.04,01,10,2013,00,00*61
$GPGGA,033461.12,3443.893224,N,13924.990849,E,1,08,0.9,713.64,M,28.4,M,,,*76
$GPZDA,033461.12,01,10,2013,00,00*66
$GPGGA,033461.20,3443.894361,N,13924.992221,E,1,08,0.9,721.63,M,28.4,M,,,*70
$GPZDA,033461.20,01,10,2013,00,00*67
$GPGGA,033461.27,3443.895353,N,13924.993417,E,1,08,0.9,728.57,M,28.4,M,,,*7B
$GPZDA,033461.27,01,10,2013,00,00*60
$GPGGA,033461.34,3443.896297,N,13924.994555,E,1,08,0.9,735.12,M,28.4,M,,,*7E
$GPZDA,033461.34,01,10,2013,00,00*62
$GPGGA,033461.40,3443.897233,N,13924.995685,E,1,08,0.9,741.58,M,28.4,M,,,*70
$GPZDA,033461.40,01,10,2013,00,00*61
$GPGGA,033461.47,3443.898194,N,13924.996844,E,1,08,0.9,748.17,M,28.4,M,,,*74
$GPZDA,033461.47,01,10,2013,00,00*66
$GPGGA,033461.55,3443.899216,N,13924.998076,E,1,08,0.9,755.14,M,28.4,M,,,*77
$GPZDA,033461.55,01,10,2013,00,00*65
$GPGGA,033461.63,3443.900364,N,13924.999460,E,1,08,0.9,762.89,M,28.4,M,,,*75
$GPZDA,033461.63,01,10,2013,00,00*60
$GPGGA,033461.72,3443.901592,N,13925.000940,E,1,08,0.9,771.11,M,28.4,M,,,*7F
$GPZDA,033461.72,01,10,2013,00,00*60
$GPGGA,033461.82,3443.902862,N,13925.002473,E,1,08,0.9,779.53,M,28.4,M,,,*70
$GPZDA,033461.82,01,10,2013,00,00*6F
$GPGGA,033461.92,3443.904270,N,13925.004171,E,1,08,0.9,788.76,M,28.4,M,,,*76
$GPZDA,033461.92,01,10,2013,00,00*6E
$GPGGA,033462.01,3443.905508,N,13925.005663,E,1,08,0.9,796.78,M,28.4,M,,,*72
$GPZDA,033462.01,01,10,2013,00,00*67
$GPGGA,033462.10,3443.906716,N,13925.007119,E,1,08,0.9,804.51,M,28.4,M,,,*7B
$GPZDA,033462.10,01,10,2013,00,00*67
$GPGGA,033462.20,3443.907980,N,13925.008643,E,1,08,0.9,812.52,M,28.4,M,,,*7B
$GPZDA,033462.20,01,10,2013,00,00*64
$GPGGA,033462.30,3443.909425,N,13925.010386,E,1,08,0.9,821.57,M,28.4,M,,,*76
$GPZDA,033462.30,01,10,2013,00,00*65
$GPGGA,033462.41,3443.910869,N,13925.012126,E,1,08,0.9,830.48,M,28.4,M,,,*78
$GPZDA,033462.41,01,10,2013,00,00*63
$GPGGA,033462.52,3443.912330,N,13925.013888,E,1,08,0.9,839.39,M,28.4,M,,,*7C
$GPZDA,033462.52,01,10,2013,00,00*61
$GPGGA,033462.63,3443.913698,N,13925.015537,E,1,08,0.9,847.63,M,28.4,M,,,*71
$GPZDA,033462.63,01,10,2013,00,00*63
$GPGGA,033462.72,3443.914934,N,13925.017027,E,1,08,0.9,854.98,M,28.4,M,,,*7F
$GPZDA,033462.72,01,10,2013,00,00*63
$GPGGA,033462.81,3443.916130,N,13925.018468,E,1,08,0.9,862.01,M,28.4,M,,,*78
$GPZDA,033462.81,01,10,2013,00,00*6F
$GPGGA,033462.90,3443.917331,N,13925.019916,E,1,08,0.9,869.00,M,28.4,M,,,*75
$GPZDA,033462.90,01,10,2013,00,00*6F
$GPGGA,033463.00,3443.918577,N,13925.021418,E,1,08,0.9,876.17,M,28.4,M,,,*76
$GPZDA,033463.00,01,10,2013,00,00*67
$GPGGA,033463.10,3443.919917,N,13925.023032,E,1,08,0.9,883.77,M,28.4,M,,,*7E
$GPZDA,033463.10,01,10,2013,00,00*66
$GPGGA,033463.22,3443.921436,N,13925.024863,E,1,08,0.9,892.27,M,28.4,M,,,*74
$GPZDA,033463.22,01,10,2013,00,00*67
$GPGGA,033463.35,3443.923115,N,13925.026887,E,1,08,0.9,901.50,M,28.4,M,,,*77
$GPZDA,033463.35,01,10,2013,00,00*61
$GPGGA,033463.50,3443.924971,N,13925.029123,E,1,08,0.9,911.50,M,28.4,M,,,*70
$GPZDA,033463.50,01,10,2013,00,00*62
$GPGGA,033463.69,3443.927335,N,13925.031973,E,1,08,0.9,923.94,M,28.4,M,,,*7E
$GPZDA,033463.69,01,10,2013,00,00*68
$GPGGA,033463.87,3443.929672,N,13925.034788,E,1,08,0.9,935.88,M,28.4,M,,,*73
$GPZDA,033463.87,01,10,2013,00,00*68
$GPGGA,033464.04,3443.931862,N,13925.037427,E,1,08,0.9,946.77,M,28.4,M,,,*78
$GPZDA,033464.04,01,10,2013,00,00*64
$GPGGA,033464.21,3443.933922,N,13925.039908,E,1,08,0.9,956.73,M,28.4,M,,,*73
$GPZDA,033464.21,01,10,2013,00,00*63
$GPGGA,033464.34,3443.935594,N,13925.041922,E,1,08,0.9,964.62,M,28.4,M,,,*76
$GPZDA,033464.34,01,10,2013,00,00*67
$GPGGA,033464.47,3443.937128,N,13925.043771,E,1,08,0.9,971.71,M,28.4,M,,,*7F
$GPZDA,033464.47,01,10,2013,00,00*63
$GPGGA,033464.59,3443.938607,N,13925.045552,E,1,08,0.9,978.40,M,28.4,M,,,*7B
$GPZDA,033464.59,01,10,2013,00,00*6C
$GPGGA,033464.71,3443.940070,N,13925.047313,E,1,08,0.9,984.89,M,28.4,M,,,*7F
$GPZDA,033464.71,01,10,2013,00,00*66
$GPGGA,033464.83,3443.941544,N,13925.049089,E,1,08,0.9,991.28,M,28.4,M,,,*70
$GPZDA,033464.83,01,10,2013,00,00*6B
$GPGGA,033464.95,3443.943052,N,13925.050905,E,1,08,0.9,997.68,M,28.4,M,,,*70
$GPZDA,033464.95,01,10,2013,00,00*6C
$GPGGA,033465.08,3443.944614,N,13925.052785,E,1,08,0.9,1004.15,M,28.4,M,,,*4A
$GPZDA,033465.08,01,10,2013,00,00*69
$GPGGA,033465.22,3443.946247,N,13925.054753,E,1,08,0.9,1010.75,M,28.4,M,,,*4C
$GPZDA,033465.22,01,10,2013,00,00*61
$GPGGA,033465.36,3443.947968,N,13925.056824,E,1,08,0.9,1017.50,M,28.4,M,,,*43
$GPZDA,033465.36,01,10,2013,00,00*64
$GPGGA,033465.51,3443.949777,N,13925.059003,E,1,08,0.9,1024.39,M,28.4,M,,,*41
$GPZDA,033465.51,01,10,2013,00,00*65
$GPGGA,033465.67,3443.951661,N,13925.061271,E,1,08,0.9,1031.33,M,28.4,M,,,*49
$GPZDA,033465.67,01,10,2013,00,00*60
$GPGGA,033465.83,3443.953579,N,13925.063580,E,1,08,0.9,1038.13,M,28.4,M,,,*4B
$GPZDA,033465.83,01,10,2013,00,00*6A
$GPGGA,033465.99,3443.955483,N,13925.065872,E,1,08,0.9,1044.64,M,28.4,M,,,*4F
$GPZDA,033465.99,01,10,2013,00,00*61
$GPGGA,033466.14,3443.957341,N,13925.068108,E,1,08,0.9,1050.75,M,28.4,M,,,*4E
$GPZDA,033466.14,01,10,2013,00,00*67
$GPGGA,033466.30,3443.959139,N,13925.070273,E,1,08,0.9,1056.44,M,28.4,M,,,*49
$GPZDA,033466.30,01,10,2013,00,00*61
$GPGGA,033466.44,3443.960882,N,13925.072371,E,1,08,0.9,1061.73,M,28.4,M,,,*48
$GPZDA,033466.44,01,10,2013,00,00*62
$GPGGA,033466.59,3443.962580,N,13925.074413,E,1,08,0.9,1066.68,M,28.4,M,,,*41
$GPZDA,033466.59,01,10,2013,00,00*6E
$GPGGA,033466.73,3443.964241,N,13925.076412,E,1,08,0.9,1071.32,M,28.4,M,,,*4F
$GPZDA,033466.73,01,10,2013,00,00*66
$GPGGA,033466.87,3443.965876,N,13925.078380,E,1,08,0.9,1075.71,M,28.4,M,,,*4A
$GPZDA,033466.87,01,10,2013,00,00*6D
$GPGGA,033467.01,3443.967494,N,13925.080326,E,1,08,0.9,1079.85,M,28.4,M,,,*4B
$GPZDA,033467.01,01,10,2013,00,00*62
$GPGGA,033467.15,3443.969100,N,13925.082260,E,1,08,0.9,1083.79,M,28.4,M,,,*4F
$GPZDA,033467.15,01,10,2013,00,00*67
$GPGGA,033467.29,3443.970703,N,13925.084187,E,1,08,0.9,1087.53,M,28.4,M,,,*4D
$GPZDA,033467.29,01,10,2013,00,00*68
$GPGGA,033467.43,3443.972305,N,13925.086115,E,1,08,0.9,1091.08,M,28.4,M,,,*41
$GPZDA,033467.43,01,10,2013,00,00*64
$GPGGA,033467.57,3443.973911,N,13925.088047,E,1,08,0.9,1094.45,M,28.4,M,,,*4E
$GPZDA,033467.57,01,10,2013,00,00*61
$GPGGA,033467.71,3443.975525,N,13925.089988,E,1,08,0.9,1097.65,M,28.4,M,,,*4D
$GPZDA,033467.71,01,10,2013,00,00*65
$GPGGA,033467.85,3443.977148,N,13925.091940,E,1,08,0.9,1100.68,M,28.4,M,,,*44
$GPZDA,033467.85,01,10,2013,00,00*6E
$GPGGA,033468.00,3443.978783,N,13925.093907,E,1,08,0.9,1103.53,M,28.4,M,,,*42
$GPZDA,033468.00,01,10,2013,00,00*6C
$GPGGA,033468.14,3443.980432,N,13925.095890,E,1,08,0.9,1106.20,M,28.4,M,,,*41
$GPZDA,033468.14,01,10,2013,00,00*69
$GPGGA,033468.29,3443.982096,N,13925.097891,E,1,08,0.9,1108.69,M,28.4,M,,,*47
$GPZDA,033468.29,01,10,2013,00,00*67
$GPGGA,033468.44,3443.983777,N,13925.099912,E,1,08,0.9,1110.99,M,28.4,M,,,*47
$GPZDA,033468.44,01,10,2013,00,00*6C
$GPGGA,033468.59,3443.985476,N,13925.101955,E,1,08,0.9,1113.10,M,28.4,M,,,*4E
$GPZDA,033468.59,01,10,2013,00,00*60
$GPGGA,033468.74,3443.987195,N,13925.104021,E,1,08,0.9,1115.02,M,28.4,M,,,*41
$GPZDA,033468.74,01,10,2013,00,00*6F
$GPGGA,033468.90,3443.988936,N,13925.106114,E,1,08,0.9,1116.72,M,28.4,M,,,*44
$GPZDA,033468.90,01,10,2013,00,00*65
$GPGGA,033469.05,3443.990703,N,13925.108238,E,1,08,0.9,1118.21,M,28.4,M,,,*43
$GPZDA,033469.05,01,10,2013,00,00*68
$GPGGA,033469.22,3443.992500,N,13925.110399,E,1,08,0.9,1119.49,M,28.4,M,,,*49
$GPZDA,033469.22,01,10,2013,00,00*6D
$GPGGA,033469.38,3443.994335,N,13925.112604,E,1,08,0.9,1120.53,M,28.4,M,,,*46
$GPZDA,033469.38,01,10,2013,00,00*66
$GPGGA,033469.55,3443.996218,N,13925.114868,E,1,08,0.9,1121.32,M,28.4,M,,,*45
$GPZDA,033469.55,01,10,2013,00,00*6D
$GPGGA,033469.73,3443.998167,N,13925.117209,E,1,08,0.9,1121.85,M,28.4,M,,,*46
$GPZDA,033469.73,01,10,2013,00,00*69
$GPGGA,033469.91,3444.000210,N,13925.119664,E,1,08,0.9,1122.08,M,28.4,M,,,*41
$GPZDA,033469.91,01,10,2013,00,00*65
$GPGGA,033470.10,3444.002348,N,13925.122234,E,1,08,0.9,1121.97,M,28.4,M,,,*42
$GPZDA,033470.10,01,10,2013,00,00*64
$GPGGA,033470.30,3444.004474,N,13925.124787,E,1,08,0.9,1121.50,M,28.4,M,,,*4E
$GPZDA,033470.30,01,10,2013,00,00*66
$GPGGA,033470.59,3444.007629,N,13925.128578,E,1,08,0.9,1120.13,M,28.4,M,,,*40
$GPZDA,033470.59,01,10,2013,00,00*69
$GPGGA,033470.78,3444.009787,N,13925.131170,E,1,08,0.9,1118.72,M,28.4,M,,,*40
$GPZDA,033470.78,01,10,2013,00,00*6A
$GPGGA,033470.98,3444.011940,N,13925.133755,E,1,08,0.9,1116.94,M,28.4,M,,,*47
$GPZDA,033470.98,01,10,2013,00,00*64
$GPGGA,033471.16,3444.013853,N,13925.136053,E,1,08,0.9,1115.03,M,28.4,M,,,*48
$GPZDA,033471.16,01,10,2013,00,00*63
$GPGGA,033471.31,3444.015556,N,13925.138097,E,1,08,0.9,1113.07,M,28.4,M,,,*47
$GPZDA,033471.31,01,10,2013,00,00*66
$GPGGA,033471.46,3444.017125,N,13925.139981,E,1,08,0.9,1111.05,M,28.4,M,,,*4A
$GPZDA,033471.46,01,10,2013,00,00*66
$GPGGA,033471.59,3444.018601,N,13925.141753,E,1,08,0.9,1108.95,M,28.4,M,,,*45
$GPZDA,033471.59,01,10,2013,00,00*68
$GPGGA,033471.72,3444.020007,N,13925.143442,E,1,08,0.9,1106.77,M,28.4,M,,,*44
$GPZDA,033471.72,01,10,2013,00,00*61
$GPGGA,033471.85,3444.021362,N,13925.145068,E,1,08,0.9,1104.51,M,28.4,M,,,*41
$GPZDA,033471.85,01,10,2013,00,00*69
$GPGGA,033471.97,3444.022676,N,13925.146646,E,1,08,0.9,1102.16,M,28.4,M,,,*4D
$GPZDA,033471.97,01,10,2013,00,00*6A
$GPGGA,033472.09,3444.023962,N,13925.148189,E,1,08,0.9,1099.71,M,28.4,M,,,*4A
$GPZDA,033472.09,01,10,2013,00,00*6E
$GPGGA,033472.21,3444.025229,N,13925.149709,E,1,08,0.9,1097.14,M,28.4,M,,,*40
$GPZDA,033472.21,01,10,2013,00,00*64
$GPGGA,033472.33,3444.026485,N,13925.151217,E,1,08,0.9,1094.45,M,28.4,M,,,*44
$GPZDA,033472.33,01,10,2013,00,00*67
$GPGGA,033472.45,3444.027741,N,13925.152724,E,1,08,0.9,1091.61,M,28.4,M,,,*4A
$GPZDA,033472.45,01,10,2013,00,00*66
$GPGGA,033472.57,3444.029008,N,13925.154244,E,1,08,0.9,1088.60,M,28.4,M,,,*41
$GPZDA,033472.57,01,10,2013,00,00*65
$GPGGA,033472.69,3444.030300,N,13925.155795,E,1,08,0.9,1085.37,M,28.4,M,,,*48
$GPZDA,033472.69,01,10,2013,00,00*68
$GPGGA,033472.82,3444.031639,N,13925.157401,E,1,08,0.9,1081.86,M,28.4,M,,,*41
$GPZDA,033472.82,01,10,2013,00,00*6D
$GPGGA,033472.96,3444.033058,N,13925.159104,E,1,08,0.9,1077.95,M,28.4,M,,,*42
$GPZDA,033472.96,01,10,2013,00,00*68
$GPGGA,033473.11,3444.034626,N,13925.160985,E,1,08,0.9,1073.41,M,28.4,M,,,*42
$GPZDA,033473.11,01,10,2013,00,00*66
$GPGGA,033473.25,3444.036126,N,13925.162784,E,1,08,0.9,1068.86,M,28.4,M,,,*4C
$GPZDA,033473.25,01,10,2013,00,00*61
$GPGGA,033473.39,3444.037576,N,13925.164524,E,1,08,0.9,1064.25,M,28.4,M,,,*4A
$GPZDA,033473.39,01,10,2013,00,00*6C
$GPGGA,033473.53,3444.039017,N,13925.166252,E,1,08,0.9,1059.48,M,28.4,M,,,*4B
$GPZDA,033473.53,01,10,2013,00,00*60
$GPGGA,033473.68,3444.040489,N,13925.168018,E,1,08,0.9,1054.42,M,28.4,M,,,*4B
$GPZDA,033473.68,01,10,2013,00,00*68
$GPGGA,033473.82,3444.041934,N,13925.169750,E,1,08,0.9,1049.27,M,28.4,M,,,*40
$GPZDA,033473.82,01,10,2013,00,00*6C
$GPGGA,033473.95,3444.043304,N,13925.171393,E,1,08,0.9,1044.21,M,28.4,M,,,*44
$GPZDA,033473.95,01,10,2013,00,00*6A
$GPGGA,033474.08,3444.044666,N,13925.173026,E,1,08,0.9,1039.02,M,28.4,M,,,*45
$GPZDA,033474.08,01,10,2013,00,00*69
$GPGGA,033474.22,3444.046090,N,13925.174734,E,1,08,0.9,1033.42,M,28.4,M,,,*4D
$GPZDA,033474.22,01,10,2013,00,00*61
$GPGGA,033474.38,3444.047720,N,13925.176688,E,1,08,0.9,1026.79,M,28.4,M,,,*43
$GPZDA,033474.38,01,10,2013,00,00*6A
$GPGGA,033474.52,3444.049154,N,13925.178407,E,1,08,0.9,1020.76,M,28.4,M,,,*46
$GPZDA,033474.52,01,10,2013,00,00*66
$GPGGA,033474.65,3444.050439,N,13925.179948,E,1,08,0.9,1015.19,M,28.4,M,,,*4C
$GPZDA,033474.65,01,10,2013,00,00*62
$GPGGA,033474.77,3444.051655,N,13925.181404,E,1,08,0.9,1009.77,M,28.4,M,,,*41
$GPZDA,033474.77,01,10,2013,00,00*61
$GPGGA,033474.88,3444.052762,N,13925.182732,E,1,08,0.9,1004.71,M,28.4,M,,,*49
$GPZDA,033474.88,01,10,2013,00,00*61
$GPGGA,033474.98,3444.053777,N,13925.183948,E,1,08,0.9,999.96,M,28.4,M,,,*7A
$GPZDA,033474.98,01,10,2013,00,00*60
$GPGGA,033475.07,3444.054736,N,13925.185098,E,1,08,0.9,995.38,M,28.4,M,,,*75
$GPZDA,033475.07,01,10,2013,00,00*67
$GPGGA,033475.17,3444.055663,N,13925.186208,E,1,08,0.9,990.85,M,28.4,M,,,*7F
$GPZDA,033475.17,01,10,2013,00,00*66
$GPGGA,033475.26,3444.056573,N,13925.187299,E,1,08,0.9,986.31,M,28.4,M,,,*7D
$GPZDA,033475.26,01,10,2013,00,00*64
$GPGGA,033475.35,3444.057481,N,13925.188387,E,1,08,0.9,981.70,M,28.4,M,,,*71
$GPZDA,033475.35,01,10,2013,00,00*66
$GPGGA,033475.44,3444.058403,N,13925.189491,E,1,08,0.9,976.91,M,28.4,M,,,*74
$GPZDA,033475.44,01,10,2013,00,00*60
$GPGGA,033475.54,3444.059359,N,13925.190637,E,1,08,0.9,971.85,M,28.4,M,,,*78
$GPZDA,033475.54,01,10,2013,00,00*61
$GPGGA,033475.65,3444.060384,N,13925.191865,E,1,08,0.9,966.31,M,28.4,M,,,*71
$GPZDA,033475.65,01,10,2013,00,00*63
$GPGGA,033475.75,3444.061427,N,13925.193115,E,1,08,0.9,960.55,M,28.4,M,,,*77
$GPZDA,033475.75,01,10,2013,00,00*62
$GPGGA,033475.85,3444.062412,N,13925.194294,E,1,08,0.9,955.01,M,28.4,M,,,*77
$GPZDA,033475.85,01,10,2013,00,00*6D
$GPGGA,033475.95,3444.063374,N,13925.195446,E,1,08,0.9,949.50,M,28.4,M,,,*71
$GPZDA,033475.95,01,10,2013,00,00*6C
$GPGGA,033476.05,3444.064339,N,13925.196603,E,1,08,0.9,943.87,M,28.4,M,,,*75
$GPZDA,033476.05,01,10,2013,00,00*66
$GPGGA,033476.16,3444.065340,N,13925.197801,E,1,08,0.9,937.95,M,28.4,M,,,*75
$GPZDA,033476.16,01,10,2013,00,00*64
$GPGGA,033476.25,3444.066279,N,13925.198925,E,1,08,0.9,932.30,M,28.4,M,,,*7F
$GPZDA,033476.25,01,10,2013,00,00*64
$GPGGA,033476.35,3444.067176,N,13925.200000,E,1,08,0.9,926.82,M,28.4,M,,,*73
$GPZDA,033476.35,01,10,2013,00,00*65
$GPGGA,033476.44,3444.068063,N,13925.201062,E,1,08,0.9,921.34,M,28.4,M,,,*70
$GPZDA,033476.44,01,10,2013,00,00*63
$GPGGA,033476.53,3444.068967,N,13925.202144,E,1,08,0.9,915.67,M,28.4,M,,,*7C
$GPZDA,033476.53,01,10,2013,00,00*65
$GPGGA,033476.63,3444.069923,N,13925.203289,E,1,08,0.9,909.59,M,28.4,M,,,*7D
$GPZDA,033476.63,01,10,2013,00,00*66
$GPGGA,033476.74,3444.070977,N,13925.204551,E,1,08,0.9,902.79,M,28.4,M,,,*7E
$GPZDA,033476.74,01,10,2013,00,00*60
$GPGGA,033476.84,3444.071926,N,13925.205687,E,1,08,0.9,896.57,M,28.4,M,,,*7D
$GPZDA,033476.84,01,10,2013,00,00*6F
$GPGGA,033476.94,3444.072823,N,13925.206761,E,1,08,0.9,890.60,M,28.4,M,,,*73
$GPZDA,033476.94,01,10,2013,00,00*6E
$GPGGA,033477.03,3444.073702,N,13925.207813,E,1,08,0.9,884.66,M,28.4,M,,,*79
$GPZDA,033477.03,01,10,2013,00,00*61
$GPGGA,033477.12,3444.074592,N,13925.208879,E,1,08,0.9,878.56,M,28.4,M,,,*76
$GPZDA,033477.12,01,10,2013,00,00*61
$GPGGA,033477.21,3444.075405,N,13925.209853,E,1,08,0.9,872.90,M,28.4,M,,,*71
$GPZDA,033477.21,01,10,2013,00,00*61
$GPGGA,033477.29,3444.076177,N,13925.210776,E,1,08,0.9,867.45,M,28.4,M,,,*76
$GPZDA,033477.29,01,10,2013,00,00*69
$GPGGA,033477.37,3444.076930,N,13925.211678,E,1,08,0.9,862.07,M,28.4,M,,,*7F
$GPZDA,033477.37,01,10,2013,00,00*66
$GPGGA,033477.45,3444.077682,N,13925.212578,E,1,08,0.9,856.61,M,28.4,M,,,*7A
$GPZDA,033477.45,01,10,2013,00,00*63
$GPGGA,033477.54,3444.078451,N,13925.213498,E,1,08,0.9,850.96,M,28.4,M,,,*79
$GPZDA,033477.54,01,10,2013,00,00*63
$GPGGA,033477.62,3444.079262,N,13925.214468,E,1,08,0.9,844.92,M,28.4,M,,,*72
$GPZDA,033477.62,01,10,2013,00,00*66
$GPGGA,033477.72,3444.080129,N,13925.215505,E,1,08,0.9,838.37,M,28.4,M,,,*76
$GPZDA,033477.72,01,10,2013,00,00*67
$GPGGA,033477.80,3444.080934,N,13925.216469,E,1,08,0.9,832.19,M,28.4,M,,,*71
$GPZDA,033477.80,01,10,2013,00,00*6A
$GPGGA,033477.89,3444.081715,N,13925.217403,E,1,08,0.9,826.14,M,28.4,M,,,*71
$GPZDA,033477.89,01,10,2013,00,00*63
$GPGGA,033477.98,3444.082498,N,13925.218340,E,1,08,0.9,819.99,M,28.4,M,,,*72
$GPZDA,033477.98,01,10,2013,00,00*63
$GPGGA,033478.07,3444.083309,N,13925.219310,E,1,08,0.9,813.56,M,28.4,M,,,*78
$GPZDA,033478.07,01,10,2013,00,00*6A
$GPGGA,033478.15,3444.084101,N,13925.220257,E,1,08,0.9,807.21,M,28.4,M,,,*7B
$GPZDA,033478.15,01,10,2013,00,00*69
$GPGGA,033478.24,3444.084852,N,13925.221156,E,1,08,0.9,801.13,M,28.4,M,,,*72
$GPZDA,033478.24,01,10,2013,00,00*6B
$GPGGA,033478.32,3444.085592,N,13925.222041,E,1,08,0.9,795.08,M,28.4,M,,,*79
$GPZDA,033478.32,01,10,2013,00,00*6C
$GPGGA,033478.40,3444.086346,N,13925.222943,E,1,08,0.9,788.86,M,28.4,M,,,*71
$GPZDA,033478.40,01,10,2013,00,00*69
$GPGGA,033478.49,3444.087145,N,13925.223899,E,1,08,0.9,782.20,M,28.4,M,,,*79
$GPZDA,033478.49,01,10,2013,00,00*60
$GPGGA,033478.58,3444.087999,N,13925.224920,E,1,08,0.9,775.02,M,28.4,M,,,*7C
$GPZDA,033478.58,01,10,2013,00,00*60
$GPGGA,033478.67,3444.088781,N,13925.225855,E,1,08,0.9,768.36,M,28.4,M,,,*71
$GPZDA,033478.67,01,10,2013,00,00*6C
$GPGGA,033478.75,3444.089531,N,13925.226752,E,1,08,0.9,761.90,M,28.4,M,,,*74
$GPZDA,033478.75,01,10,2013,00,00*6F
$GPGGA,033478.84,3444.090279,N,13925.227647,E,1,08,0.9,755.40,M,28.4,M,,,*77
$GPZDA,033478.84,01,10,2013,00,00*61
$GPGGA,033478.93,3444.091052,N,13925.228572,E,1,08,0.9,748.58,M,28.4,M,,,*74
$GPZDA,033478.93,01,10,2013,00,00*67
$GPGGA,033479.01,3444.091763,N,13925.229422,E,1,08,0.9,742.25,M,28.4,M,,,*7E
$GPZDA,033479.01,01,10,2013,00,00*6D
$GPGGA,033479.08,3444.092444,N,13925.230236,E,1,08,0.9,736.12,M,28.4,M,,,*7E
$GPZDA,033479.08,01,10,2013,00,00*64
$GPGGA,033479.16,3444.093119,N,13925.231042,E,1,08,0.9,729.98,M,28.4,M,,,*71
$GPZDA,033479.16,01,10,2013,00,00*6B
$GPGGA,033479.24,3444.093807,N,13925.231865,E,1,08,0.9,723.64,M,28.4,M,,,*72
$GPZDA,033479.24,01,10,2013,00,00*6A
$GPGGA,033479.32,3444.094535,N,13925.232735,E,1,08,0.9,716.86,M,28.4,M,,,*7D
$GPZDA,033479.32,01,10,2013,00,00*6D
$GPGGA,033479.41,3444.095290,N,13925.233638,E,1,08,0.9,709.75,M,28.4,M,,,*7F
$GPZDA,033479.41,01,10,2013,00,00*69
$GPGGA,033479.49,3444.095996,N,13925.234482,E,1,08,0.9,703.03,M,28.4,M,,,*75
$GPZDA,033479.49,01,10,2013,00,00*61
$GPGGA,033479.57,3444.096686,N,13925.235306,E,1,08,0.9,696.40,M,28.4,M,,,*77
$GPZDA,033479.57,01,10,2013,00,00*6E
$GPGGA,033479.65,3444.097387,N,13925.236144,E,1,08,0.9,689.61,M,28.4,M,,,*79
$GPZDA,033479.65,01,10,2013,00,00*6F
$GPGGA,033479.74,3444.098129,N,13925.237031,E,1,08,0.9,682.35,M,28.4,M,,,*78
$GPZDA,033479.74,01,10,2013,00,00*6F
$GPGGA,033479.82,3444.098827,N,13925.237865,E,1,08,0.9,675.46,M,28.4,M,,,*73
$GPZDA,033479.82,01,10,2013,00,00*66
$GPGGA,033479.90,3444.099502,N,13925.238672,E,1,08,0.9,668.74,M,28.4,M,,,*71
$GPZDA,033479.90,01,10,2013,00,00*65
$GPGGA,033479.98,3444.100181,N,13925.239484,E,1,08,0.9,661.93,M,28.4,M,,,*7D
$GPZDA,033479.98,01,10,2013,00,00*6D
$GPGGA,033480.06,3444.100896,N,13925.240337,E,1,08,0.9,654.71,M,28.4,M,,,*78
$GPZDA,033480.06,01,10,2013,00,00*6C
$GPGGA,033480.16,3444.101669,N,13925.241262,E,1,08,0.9,646.82,M,28.4,M,,,*79
$GPZDA,033480.16,01,10,2013,00,00*6D
$GPGGA,033480.24,3444.102373,N,13925.242103,E,1,08,0.9,639.58,M,28.4,M,,,*7D
$GPZDA,033480.24,01,10,2013,00,00*6C
$GPGGA,033480.32,3444.103051,N,13925.242913,E,1,08,0.9,632.54,M,28.4,M,,,*76
$GPZDA,033480.32,01,10,2013,00,00*6B
$GPGGA,033480.40,3444.103732,N,13925.243726,E,1,08,0.9,625.40,M,28.4,M,,,*7B
$GPZDA,033480.40,01,10,2013,00,00*6E
$GPGGA,033480.49,3444.104447,N,13925.244581,E,1,08,0.9,617.83,M,28.4,M,,,*72
$GPZDA,033480.49,01,10,2013,00,00*67
$GPGGA,033480.56,3444.105105,N,13925.245367,E,1,08,0.9,610.79,M,28.4,M,,,*73
$GPZDA,033480.56,01,10,2013,00,00*69
$GPGGA,033480.64,3444.105742,N,13925.246127,E,1,08,0.9,603.91,M,28.4,M,,,*76
$GPZDA,033480.64,01,10,2013,00,00*68
$GPGGA,033480.72,3444.106383,N,13925.246892,E,1,08,0.9,596.92,M,28.4,M,,,*70
$GPZDA,033480.72,01,10,2013,00,00*6F
$GPGGA,033480.80,3444.107054,N,13925.247694,E,1,08,0.9,589.52,M,28.4,M,,,*7E
$GPZDA,033480.80,01,10,2013,00,00*62
$GPGGA,033480.89,3444.107767,N,13925.248546,E,1,08,0.9,581.59,M,28.4,M,,,*70
$GPZDA,033480.89,01,10,2013,00,00*6B
$GPGGA,033480.97,3444.108423,N,13925.249330,E,1,08,0.9,574.21,M,28.4,M,,,*70
$GPZDA,033480.97,01,10,2013,00,00*64
$GPGGA,033481.05,3444.109064,N,13925.250095,E,1,08,0.9,566.95,M,28.4,M,,,*74
$GPZDA,033481.05,01,10,2013,00,00*6E
$GPGGA,033481.13,3444.109719,N,13925.250876,E,1,08,0.9,559.48,M,28.4,M,,,*77
$GPZDA,033481.13,01,10,2013,00,00*69
$GPGGA,033481.22,3444.110422,N,13925.251716,E,1,08,0.9,551.38,M,28.4,M,,,*71
$GPZDA,033481.22,01,10,2013,00,00*6B
$GPGGA,033481.30,3444.111078,N,13925.252499,E,1,08,0.9,543.77,M,28.4,M,,,*77
$GPZDA,033481.30,01,10,2013,00,00*68
$GPGGA,033481.38,3444.111719,N,13925.253265,E,1,08,0.9,536.27,M,28.4,M,,,*7C
$GPZDA,033481.38,01,10,2013,00,00*60
$GPGGA,033481.46,3444.112379,N,13925.254052,E,1,08,0.9,528.51,M,28.4,M,,,*7B
$GPZDA,033481.46,01,10,2013,00,00*69
$GPGGA,033481.55,3444.113100,N,13925.254913,E,1,08,0.9,519.95,M,28.4,M,,,*72
$GPZDA,033481.55,01,10,2013,00,00*6B
$GPGGA,033481.63,3444.113771,N,13925.255715,E,1,08,0.9,511.91,M,28.4,M,,,*72
$GPZDA,033481.63,01,10,2013,00,00*6E
$GPGGA,033481.72,3444.114410,N,13925.256477,E,1,08,0.9,504.20,M,28.4,M,,,*7B
$GPZDA,033481.72,01,10,2013,00,00*6E
$GPGGA,033481.80,3444.115051,N,13925.257242,E,1,08,0.9,496.41,M,28.4,M,,,*7A
$GPZDA,033481.80,01,10,2013,00,00*63
$GPGGA,033481.88,3444.115728,N,13925.258050,E,1,08,0.9,488.08,M,28.4,M,,,*77
$GPZDA,033481.88,01,10,2013,00,00*6B
$GPGGA,033481.96,3444.116364,N,13925.258809,E,1,08,0.9,480.20,M,28.4,M,,,*71
$GPZDA,033481.96,01,10,2013,00,00*64
$GPGGA,033482.04,3444.116981,N,13925.259545,E,1,08,0.9,472.48,M,28.4,M,,,*7F
$GPZDA,033482.04,01,10,2013,00,00*6C
$GPGGA,033482.12,3444.117571,N,13925.260249,E,1,08,0.9,465.03,M,28.4,M,,,*72
$GPZDA,033482.12,01,10,2013,00,00*6B
