$GPGGA,033456.78,3443.863540,N,13924.955020,E,1,08,0.9,465.00,M,28.4,M,,,*7A
$GPZDA,033456.78,01,10,2013,00,00*6E
$GPGGA,033456.79,3443.863540,N,13924.955020,E,1,08,0.9,465.00,M,28.4,M,,,*7B
$GPZDA,033456.79,01,10,2013,00,00*6F
$GPGGA,033456.82,3443.863542,N,13924.955023,E,1,08,0.9,465.02,M,28.4,M,,,*7C
$GPZDA,033456.82,01,10,2013,00,00*6B
$GPGGA,033456.94,3443.863573,N,13924.955060,E,1,08,0.9,465.36,M,28.4,M,,,*79
$GPZDA,033456.94,01,10,2013,00,00*6C
$GPGGA,033457.13,3443.863696,N,13924.955209,E,1,08,0.9,466.70,M,28.4,M,,,*73
$GPZDA,033457.13,01,10,2013,00,00*62
$GPGGA,033457.43,3443.864073,N,13924.955664,E,1,08,0.9,470.81,M,28.4,M,,,*7A
$GPZDA,033457.43,01,10,2013,00,00*67
$GPGGA,033457.73,3443.864668,N,13924.956383,E,1,08,0.9,477.31,M,28.4,M,,,*76
$GPZDA,033457.73,01,10,2013,00,00*64
$GPGGA,033458.00,3443.865405,N,13924.957274,E,1,08,0.9,485.33,M,28.4,M,,,*72
$GPZDA,033458.00,01,10,2013,00,00*6F
$GPGGA,033458.28,3443.866382,N,13924.958455,E,1,08,0.9,495.80,M,28.4,M,,,*70
$GPZDA,033458.28,01,10,2013,00,00*65
$GPGGA,033458.50,3443.867296,N,13924.959560,E,1,08,0.9,505.35,M,28.4,M,,,*7A
$GPZDA,033458.50,01,10,2013,00,00*6A
$GPGGA,033458.71,3443.868367,N,13924.960854,E,1,08,0.9,516.17,M,28.4,M,,,*7B
$GPZDA,033458.71,01,10,2013,00,00*69
$GPGGA,033458.91,3443.869452,N,13924.962164,E,1,08,0.9,526.69,M,28.4,M,,,*77
$GPZDA,033458.91,01,10,2013,00,00*67
$GPGGA,033459.08,3443.870554,N,13924.963494,E,1,08,0.9,536.95,M,28.4,M,,,*70
$GPZDA,033459.08,01,10,2013,00,00*66
$GPGGA,033459.24,3443.871724,N,13924.964907,E,1,08,0.9,547.44,M,28.4,M,,,*70
$GPZDA,033459.24,01,10,2013,00,00*68
$GPGGA,033459.41,3443.873037,N,13924.966492,E,1,08,0.9,558.80,M,28.4,M,,,*71
$GPZDA,033459.41,01,10,2013,00,00*6B
$GPGGA,033459.59,3443.874673,N,13924.968466,E,1,08,0.9,572.50,M,28.4,M,,,*79
$GPZDA,033459.59,01,10,2013,00,00*62
$GPGGA,033459.78,3443.876430,N,13924.970587,E,1,08,0.9,586.82,M,28.4,M,,,*7E
$GPZDA,033459.78,01,10,2013,00,00*61
$GPGGA,033459.95,3443.878246,N,13924.972778,E,1,08,0.9,601.32,M,28.4,M,,,*73
$GPZDA,033459.95,01,10,2013,00,00*62
$GPGGA,033460.11,3443.879975,N,13924.974865,E,1,08,0.9,614.93,M,28.4,M,,,*75
$GPZDA,033460.11,01,10,2013,00,00*64
$GPGGA,033460.27,3443.881866,N,13924.977147,E,1,08,0.9,629.63,M,28.4,M,,,*7F
$GPZDA,033460.27,01,10,2013,00,00*61
$GPGGA,033460.46,3443.884206,N,13924.979971,E,1,08,0.9,647.53,M,28.4,M,,,*79
$GPZDA,033460.46,01,10,2013,00,00*66
$GPGGA,033460.63,3443.886334,N,13924.982538,E,1,08,0.9,663.50,M,28.4,M,,,*7C
$GPZDA,033460.63,01,10,2013,00,00*61
$GPGGA,033460.76,3443.888140,N,13924.984717,E,1,08,0.9,676.83,M,28.4,M,,,*74
$GPZDA,033460.76,01,10,2013,00,00*65
$GPGGA,033460.77,3443.888404,N,13924.985035,E,1,08,0.9,678.75,M,28.4,M,,,*71
$GPZDA,033460.77,01,10,2013,00,00*64
$GPGGA,033460.79,3443.888606,N,13924.985278,E,1,08,0.9,680.22,M,28.4,M,,,*71
$GPZDA,033460.79,01,10,2013,00,00*6A
$GPGGA,033460.80,3443.888807,N,13924.985521,E,1,08,0.9,681.69,M,28.4,M,,,*7D
$GPZDA,033460.80,01,10,2013,00,00*6C
$GPGGA,033460.87,3443.889811,N,13924.986732,E,1,08,0.9,688.98,M,28.4,M,,,*78
$GPZDA,033460.87,01,10,2013,00,00*6B
$GPGGA,033461.02,3443.891914,N,13924.989269,E,1,08,0.9,704.06,M,28.4,M,,,*7F
$GPZDA,033461.02,01,10,2013,00,00*67
$GPGGA,033461.19,3443.894266,N,13924.992106,E,1,08,0.9,720.66,M,28.4,M,,,*7E
$GPZDA,033461.19,01,10,2013,00,00*6D
$GPGGA,033461.35,3443.896557,N,13924.994868,E,1,08,0.9,736.58,M,28.4,M,,,*7A
$GPZDA,033461.35,01,10,2013,00,00*63
$GPGGA,033461.50,3443.898577,N,13924.997305,E,1,08,0.9,750.43,M,28.4,M,,,*7C
$GPZDA,033461.50,01,10,2013,00,00*60
$GPGGA,033461.66,3443.900725,N,13924.999895,E,1,08,0.9,764.94,M,28.4,M,,,*7D
$GPZDA,033461.66,01,10,2013,00,00*65
$GPGGA,033461.85,3443.903340,N,13925.003049,E,1,08,0.9,782.28,M,28.4,M,,,*79
$GPZDA,033461.85,01,10,2013,00,00*68
$GPGGA,033462.06,3443.906244,N,13925.006550,E,1,08,0.9,801.09,M,28.4,M,,,*7E
$GPZDA,033462.06,01,10,2013,00,00*60
$GPGGA,033462.26,3443.908871,N,13925.009717,E,1,08,0.9,817.69,M,28.4,M,,,*71
$GPZDA,033462.26,01,10,2013,00,00*62
$GPGGA,033462.49,3443.911957,N,13925.013438,E,1,08,0.9,836.68,M,28.4,M,,,*72
$GPZDA,033462.49,01,10,2013,00,00*6B
$GPGGA,033462.74,3443.915151,N,13925.017288,E,1,08,0.9,855.77,M,28.4,M,,,*74
$GPZDA,033462.74,01,10,2013,00,00*65
$GPGGA,033462.94,3443.917835,N,13925.020523,E,1,08,0.9,871.39,M,28.4,M,,,*7D
$GPZDA,033462.94,01,10,2013,00,00*6B
$GPGGA,033463.15,3443.920463,N,13925.023691,E,1,08,0.9,886.29,M,28.4,M,,,*7E
$GPZDA,033463.15,01,10,2013,00,00*63
$GPGGA,033463.38,3443.923485,N,13925.027332,E,1,08,0.9,902.93,M,28.4,M,,,*7E
$GPZDA,033463.38,01,10,2013,00,00*6C
$GPGGA,033463.67,3443.927134,N,13925.031729,E,1,08,0.9,922.29,M,28.4,M,,,*75
$GPZDA,033463.67,01,10,2013,00,00*66
$GPGGA,033464.07,3443.932218,N,13925.037854,E,1,08,0.9,947.86,M,28.4,M,,,*78
$GPZDA,033464.07,01,10,2013,00,00*67
$GPGGA,033464.36,3443.935784,N,13925.042151,E,1,08,0.9,964.83,M,28.4,M,,,*77
$GPZDA,033464.36,01,10,2013,00,00*65
$GPGGA,033464.65,3443.939319,N,13925.046409,E,1,08,0.9,980.85,M,28.4,M,,,*7D
$GPZDA,033464.65,01,10,2013,00,00*63
$GPGGA,033464.91,3443.942545,N,13925.050294,E,1,08,0.9,994.78,M,28.4,M,,,*77
$GPZDA,033464.91,01,10,2013,00,00*68
$GPGGA,033465.17,3443.945747,N,13925.054150,E,1,08,0.9,1007.95,M,28.4,M,,,*41
$GPZDA,033465.17,01,10,2013,00,00*67
$GPGGA,033465.45,3443.949139,N,13925.058234,E,1,08,0.9,1021.15,M,28.4,M,,,*44
$GPZDA,033465.45,01,10,2013,00,00*60
$GPGGA,033465.77,3443.952859,N,13925.062713,E,1,08,0.9,1034.74,M,28.4,M,,,*4A
$GPZDA,033465.77,01,10,2013,00,00*61
$GPGGA,033466.11,3443.956884,N,13925.067558,E,1,08,0.9,1048.37,M,28.4,M,,,*49
$GPZDA,033466.11,01,10,2013,00,00*62
$GPGGA,033466.45,3443.960922,N,13925.072419,E,1,08,0.9,1060.90,M,28.4,M,,,*47
$GPZDA,033466.45,01,10,2013,00,00*63
$GPGGA,033466.78,3443.964744,N,13925.077017,E,1,08,0.9,1071.70,M,28.4,M,,,*42
$GPZDA,033466.78,01,10,2013,00,00*6D
$GPGGA,033467.09,3443.968363,N,13925.081372,E,1,08,0.9,1080.97,M,28.4,M,,,*46
$GPZDA,033467.09,01,10,2013,00,00*6A
$GPGGA,033467.39,3443.971865,N,13925.085585,E,1,08,0.9,1089.04,M,28.4,M,,,*49
$GPZDA,033467.39,01,10,2013,00,00*69
$GPGGA,033467.69,3443.975321,N,13925.089742,E,1,08,0.9,1096.13,M,28.4,M,,,*4E
$GPZDA,033467.69,01,10,2013,00,00*6C
$GPGGA,033468.00,3443.978779,N,13925.093901,E,1,08,0.9,1102.35,M,28.4,M,,,*40
$GPZDA,033468.00,01,10,2013,00,00*6C
$GPGGA,033468.30,3443.982274,N,13925.098105,E,1,08,0.9,1107.73,M,28.4,M,,,*4E
$GPZDA,033468.30,01,10,2013,00,00*6F
$GPGGA,033468.62,3443.985834,N,13925.102385,E,1,08,0.9,1112.27,M,28.4,M,,,*4D
$GPZDA,033468.62,01,10,2013,00,00*68
$GPGGA,033468.95,3443.989483,N,13925.106771,E,1,08,0.9,1115.92,M,28.4,M,,,*4B
$GPZDA,033468.95,01,10,2013,00,00*60
$GPGGA,033469.28,3443.993254,N,13925.111305,E,1,08,0.9,1118.61,M,28.4,M,,,*4B
$GPZDA,033469.28,01,10,2013,00,00*67
$GPGGA,033469.64,3443.997206,N,13925.116053,E,1,08,0.9,1120.24,M,28.4,M,,,*4D
$GPZDA,033469.64,01,10,2013,00,00*6F
$GPGGA,033470.03,3444.001467,N,13925.121174,E,1,08,0.9,1120.63,M,28.4,M,,,*47
$GPZDA,033470.03,01,10,2013,00,00*66
$GPGGA,033470.48,3444.006443,N,13925.127152,E,1,08,0.9,1119.24,M,28.4,M,,,*42
$GPZDA,033470.48,01,10,2013,00,00*69
$GPGGA,033470.86,3444.010594,N,13925.132138,E,1,08,0.9,1116.55,M,28.4,M,,,*4D
$GPZDA,033470.86,01,10,2013,00,00*6B
$GPGGA,033471.24,3444.014724,N,13925.137097,E,1,08,0.9,1112.45,M,28.4,M,,,*4D
$GPZDA,033471.24,01,10,2013,00,00*62
$GPGGA,033471.57,3444.018338,N,13925.141437,E,1,08,0.9,1107.68,M,28.4,M,,,*48
$GPZDA,033471.57,01,10,2013,00,00*66
$GPGGA,033471.86,3444.021461,N,13925.145186,E,1,08,0.9,1102.64,M,28.4,M,,,*47
$GPZDA,033471.86,01,10,2013,00,00*6A
$GPGGA,033472.13,3444.024334,N,13925.148634,E,1,08,0.9,1097.22,M,28.4,M,,,*46
$GPZDA,033472.13,01,10,2013,00,00*65
$GPGGA,033472.39,3444.027089,N,13925.151941,E,1,08,0.9,1091.32,M,28.4,M,,,*4A
$GPZDA,033472.39,01,10,2013,00,00*6D
$GPGGA,033472.65,3444.029832,N,13925.155233,E,1,08,0.9,1084.73,M,28.4,M,,,*4E
$GPZDA,033472.65,01,10,2013,00,00*64
$GPGGA,033472.92,3444.032699,N,13925.158672,E,1,08,0.9,1077.09,M,28.4,M,,,*4E
$GPZDA,033472.92,01,10,2013,00,00*6C
$GPGGA,033473.24,3444.035989,N,13925.162618,E,1,08,0.9,1067.36,M,28.4,M,,,*43
$GPZDA,033473.24,01,10,2013,00,00*60
$GPGGA,033473.55,3444.039183,N,13925.166449,E,1,08,0.9,1056.96,M,28.4,M,,,*41
$GPZDA,033473.55,01,10,2013,00,00*66
$GPGGA,033473.86,3444.042392,N,13925.170299,E,1,08,0.9,1045.58,M,28.4,M,,,*4D
$GPZDA,033473.86,01,10,2013,00,00*68
$GPGGA,033474.15,3444.045379,N,13925.173880,E,1,08,0.9,1034.18,M,28.4,M,,,*41
$GPZDA,033474.15,01,10,2013,00,00*65
$GPGGA,033474.47,3444.048574,N,13925.177711,E,1,08,0.9,1021.11,M,28.4,M,,,*4E
$GPZDA,033474.47,01,10,2013,00,00*62
$GPGGA,033474.77,3444.051679,N,13925.181432,E,1,08,0.9,1007.51,M,28.4,M,,,*40
$GPZDA,033474.77,01,10,2013,00,00*61
$GPGGA,033475.02,3444.054197,N,13925.184450,E,1,08,0.9,995.77,M,28.4,M,,,*77
$GPZDA,033475.02,01,10,2013,00,00*62
$GPGGA,033475.23,3444.056279,N,13925.186945,E,1,08,0.9,985.56,M,28.4,M,,,*7C
$GPZDA,033475.23,01,10,2013,00,00*61
$GPGGA,033475.43,3444.058245,N,13925.189300,E,1,08,0.9,975.48,M,28.4,M,,,*7F
$GPZDA,033475.43,01,10,2013,00,00*67
$GPGGA,033475.64,3444.060271,N,13925.191728,E,1,08,0.9,964.63,M,28.4,M,,,*78
$GPZDA,033475.64,01,10,2013,00,00*62
$GPGGA,033475.88,3444.062605,N,13925.194524,E,1,08,0.9,951.58,M,28.4,M,,,*7A
$GPZDA,033475.88,01,10,2013,00,00*60
$GPGGA,033476.09,3444.064707,N,13925.197041,E,1,08,0.9,939.34,M,28.4,M,,,*74
$GPZDA,033476.09,01,10,2013,00,00*6A
$GPGGA,033476.32,3444.066884,N,13925.199649,E,1,08,0.9,926.20,M,28.4,M,,,*71
$GPZDA,033476.32,01,10,2013,00,00*62
$GPGGA,033476.52,3444.068820,N,13925.201967,E,1,08,0.9,914.15,M,28.4,M,,,*71
$GPZDA,033476.52,01,10,2013,00,00*64
$GPGGA,033476.73,3444.070813,N,13925.204353,E,1,08,0.9,901.37,M,28.4,M,,,*77
$GPZDA,033476.73,01,10,2013,00,00*67
$GPGGA,033476.96,3444.072992,N,13925.206962,E,1,08,0.9,886.93,M,28.4,M,,,*7C
$GPZDA,033476.96,01,10,2013,00,00*6C
$GPGGA,033477.16,3444.074950,N,13925.209306,E,1,08,0.9,873.52,M,28.4,M,,,*7D
$GPZDA,033477.16,01,10,2013,00,00*65
$GPGGA,033477.35,3444.076718,N,13925.211421,E,1,08,0.9,861.01,M,28.4,M,,,*72
$GPZDA,033477.35,01,10,2013,00,00*64
$GPGGA,033477.53,3444.078340,N,13925.213364,E,1,08,0.9,849.17,M,28.4,M,,,*7C
$GPZDA,033477.53,01,10,2013,00,00*64
$GPGGA,033477.71,3444.080021,N,13925.215375,E,1,08,0.9,836.55,M,28.4,M,,,*77
$GPZDA,033477.71,01,10,2013,00,00*64
$GPGGA,033477.91,3444.081825,N,13925.217533,E,1,08,0.9,822.61,M,28.4,M,,,*70
$GPZDA,033477.91,01,10,2013,00,00*6A
$GPGGA,033478.09,3444.083517,N,13925.219557,E,1,08,0.9,809.19,M,28.4,M,,,*7A
$GPZDA,033478.09,01,10,2013,00,00*64
$GPGGA,033478.29,3444.085262,N,13925.221644,E,1,08,0.9,795.04,M,28.4,M,,,*77
$GPZDA,033478.29,01,10,2013,00,00*66
$GPGGA,033478.46,3444.086861,N,13925.223558,E,1,08,0.9,781.78,M,28.4,M,,,*76
$GPZDA,033478.46,01,10,2013,00,00*6F
$GPGGA,033478.65,3444.088595,N,13925.225631,E,1,08,0.9,767.11,M,28.4,M,,,*72
$GPZDA,033478.65,01,10,2013,00,00*6E
$GPGGA,033478.84,3444.090290,N,13925.227658,E,1,08,0.9,752.44,M,28.4,M,,,*7D
$GPZDA,033478.84,01,10,2013,00,00*61
$GPGGA,033479.03,3444.091943,N,13925.229635,E,1,08,0.9,737.75,M,28.4,M,,,*73
$GPZDA,033479.03,01,10,2013,00,00*6F
$GPGGA,033479.20,3444.093435,N,13925.231418,E,1,08,0.9,724.17,M,28.4,M,,,*7E
$GPZDA,033479.20,01,10,2013,00,00*6E
$GPGGA,033479.37,3444.094903,N,13925.233173,E,1,08,0.9,710.48,M,28.4,M,,,*70
$GPZDA,033479.37,01,10,2013,00,00*68
$GPGGA,033479.56,3444.096559,N,13925.235153,E,1,08,0.9,694.66,M,28.4,M,,,*73
$GPZDA,033479.56,01,10,2013,00,00*6F
$GPGGA,033479.74,3444.098057,N,13925.236943,E,1,08,0.9,680.05,M,28.4,M,,,*7C
$GPZDA,033479.74,01,10,2013,00,00*6F
$GPGGA,033479.92,3444.099661,N,13925.238860,E,1,08,0.9,664.10,M,28.4,M,,,*76
$GPZDA,033479.92,01,10,2013,00,00*67
$GPGGA,033480.10,3444.101116,N,13925.240599,E,1,08,0.9,649.38,M,28.4,M,,,*7C
$GPZDA,033480.10,01,10,2013,00,00*6B
$GPGGA,033480.29,3444.102732,N,13925.242529,E,1,08,0.9,632.73,M,28.4,M,,,*7F
$GPZDA,033480.29,01,10,2013,00,00*61
$GPGGA,033480.47,3444.104226,N,13925.244314,E,1,08,0.9,617.01,M,28.4,M,,,*7D
$GPZDA,033480.47,01,10,2013,00,00*69
$GPGGA,033480.65,3444.105773,N,13925.246162,E,1,08,0.9,600.39,M,28.4,M,,,*75
$GPZDA,033480.65,01,10,2013,00,00*69
$GPGGA,033480.82,3444.107146,N,13925.247802,E,1,08,0.9,585.29,M,28.4,M,,,*7F
$GPZDA,033480.82,01,10,2013,00,00*60
$GPGGA,033481.00,3444.108615,N,13925.249556,E,1,08,0.9,568.81,M,28.4,M,,,*79
$GPZDA,033481.00,01,10,2013,00,00*6B
$GPGGA,033481.17,3444.110015,N,13925.251228,E,1,08,0.9,552.80,M,28.4,M,,,*7F
$GPZDA,033481.17,01,10,2013,00,00*6D
$GPGGA,033481.35,3444.111465,N,13925.252959,E,1,08,0.9,535.92,M,28.4,M,,,*71
$GPZDA,033481.35,01,10,2013,00,00*6D
$GPGGA,033481.53,3444.112851,N,13925.254613,E,1,08,0.9,519.53,M,28.4,M,,,*7D
$GPZDA,033481.53,01,10,2013,00,00*6D
$GPGGA,033481.71,3444.114346,N,13925.256399,E,1,08,0.9,501.55,M,28.4,M,,,*7C
$GPZDA,033481.71,01,10,2013,00,00*6D
$GPGGA,033481.89,3444.115748,N,13925.258072,E,1,08,0.9,484.39,M,28.4,M,,,*7E
$GPZDA,033481.89,01,10,2013,00,00*6A
$GPGGA,033482.08,3444.117233,N,13925.259844,E,1,08,0.9,465.83,M,28.4,M,,,*7D
$GPZDA,033482.08,01,10,2013,00,00*60
$GPGGA,033482.09,3444.117296,N,13925.259919,E,1,08,0.9,465.03,M,28.4,M,,,*72
$GPZDA,033482.09,01,10,2013,00,00*61
